"Feature Name"|"ID"|"Class"|"County"|"State"|"Latitude"|"Longitude"|"Ele(ft*)"|"Map**"|"BGN Date"|"Entry Date"|
"Barfoot Spring"|"1027"|"Spring"|"Cochise"|"AZ"|"31.9170713"|"-109.2787104"|"8241"|"Rustler Park"|""|"08-FEB-1980"
"Basin Spring"|"1044"|"Spring"|"Coconino"|"AZ"|"36.2663709"|"-112.1079486"|"8225"|"Little Park Lake"|""|"08-FEB-1980"
"Bee Spring"|"1182"|"Spring"|"Coconino"|"AZ"|"36.4510947"|"-112.3185116"|"7808"|"Timp Point"|""|"08-FEB-1980"
"Bright Angel Spring"|"1964"|"Spring"|"Coconino"|"AZ"|"36.2202603"|"-112.0679471"|"8107"|"Bright Angel Point"|"01-JAN-1932"|"08-FEB-1980"
"Charvoidles Spring"|"2773"|"Spring"|"Apache"|"AZ"|"33.7728286"|"-109.5239775"|"8153"|"Bonito Rock"|""|"08-FEB-1980"
"Government Spring"|"5194"|"Spring"|"Graham"|"AZ"|"32.7409328"|"-110.0266112"|"8386"|"Blue Jay Peak"|""|"08-FEB-1980"
"Greenland Spring"|"5370"|"Spring"|"Coconino"|"AZ"|"36.2438721"|"-112.0010015"|"8094"|"Bright Angel Point"|"01-JAN-1906"|"08-FEB-1980"
"Ikes Spring"|"6179"|"Spring"|"Coconino"|"AZ"|"36.3483151"|"-112.2721201"|"7946"|"King Arthur Castle"|"01-JAN-1932"|"08-FEB-1980"
"Kailcheebito Spring"|"6589"|"Spring"|"Apache"|"AZ"|"35.9371203"|"-109.1393347"|"7835"|"Sawmill"|""|"08-FEB-1980"
"Kanabownits Spring"|"6602"|"Spring"|"Coconino"|"AZ"|"36.2870522"|"-112.2133753"|"7943"|"Kanabownits Spring"|"01-JAN-1932"|"08-FEB-1980"
"Locust Spring"|"7266"|"Spring"|"Coconino"|"AZ"|"36.4000871"|"-112.2862678"|"8045"|"Timp Point"|""|"08-FEB-1980"
"Lookout Spring"|"7369"|"Spring"|"Graham"|"AZ"|"32.7385317"|"-110.0439835"|"7910"|"Blue Jay Peak"|""|"08-FEB-1980"
"Lower Rustler Spring"|"7502"|"Spring"|"Cochise"|"AZ"|"31.9060477"|"-109.2779672"|"8376"|"Rustler Park"|""|"08-FEB-1980"
"Lower Thompson Spring"|"7513"|"Spring"|"Coconino"|"AZ"|"36.2416492"|"-112.0598917"|"8356"|"Bright Angel Point"|""|"08-FEB-1980"
"Neal Spring"|"8551"|"Spring"|"Coconino"|"AZ"|"36.2569276"|"-112.0023906"|"8248"|"Little Park Lake"|"01-JAN-1932"|"08-FEB-1980"
"North Canyon Spring"|"8711"|"Spring"|"Coconino"|"AZ"|"36.3975150"|"-112.0846378"|"8232"|"Dog Point"|""|"08-FEB-1980"
"Outlet Spring"|"9037"|"Spring"|"Coconino"|"AZ"|"36.2280760"|"-112.1008553"|"7989"|"Bright Angel Point"|"01-JAN-1906"|"08-FEB-1980"
"Pasture Spring"|"9243"|"Spring"|"Coconino"|"AZ"|"36.3772900"|"-112.2979768"|"7812"|"Timp Point"|""|"08-FEB-1980"
"Robbers Roost Spring"|"10357"|"Spring"|"Coconino"|"AZ"|"36.2804967"|"-112.0888327"|"8271"|"Little Park Lake"|""|"08-FEB-1980"
"South Canyon Spring"|"11580"|"Spring"|"Coconino"|"AZ"|"36.3382328"|"-112.0374780"|"8412"|"Little Park Lake"|""|"08-FEB-1980"
"Squaw Spring"|"11752"|"Spring"|"Coconino"|"AZ"|"36.3946193"|"-112.2855219"|"8008"|"Timp Point"|""|"08-FEB-1980"
"Tipover Spring"|"12503"|"Spring"|"Coconino"|"AZ"|"36.3464204"|"-112.2226140"|"8156"|"Kanabownits Spring"|""|"08-FEB-1980"
"Tokezje Spring"|"12556"|"Spring"|"Apache"|"AZ"|"35.9583429"|"-109.1739873"|"7825"|"Sawmill"|""|"08-FEB-1980"
"Upper Rustler Spring"|"13115"|"Spring"|"Cochise"|"AZ"|"31.9028596"|"-109.2809653"|"8501"|"Rustler Park"|""|"08-FEB-1980"
"Upper Thompson Spring"|"13128"|"Spring"|"Coconino"|"AZ"|"36.2593588"|"-112.0559710"|"8386"|"Little Park Lake"|""|"08-FEB-1980"
"Watts Spring"|"13409"|"Spring"|"Coconino"|"AZ"|"36.3793239"|"-112.2758232"|"7976"|"Timp Point"|""|"08-FEB-1980"
"Pine Water Spring"|"21744"|"Spring"|"Apache"|"AZ"|"36.5258342"|"-109.1978784"|"8159"|"Cove"|""|"27-JUN-1984"
"White Rock Spring"|"21890"|"Spring"|"Apache"|"AZ"|"35.9038992"|"-109.2762114"|"7838"|"White Rock Wash"|""|"27-JUN-1984"
"Parson Spring"|"25357"|"Spring"|"Apache"|"AZ"|"33.9279351"|"-109.0595751"|"8422"|"Escudilla Mountain"|""|"01-FEB-1992"
"Alto Spring"|"25612"|"Spring"|"Coconino"|"AZ"|"35.3777141"|"-111.6202465"|"7969"|"O'Leary Peak"|""|"08-FEB-1980"
"Armour Spring"|"25756"|"Spring"|"Santa Cruz"|"AZ"|"31.7240530"|"-110.8462366"|"7966"|"Mount Wrightson"|""|"08-FEB-1980"
"Aspen Spring"|"25824"|"Spring"|"Apache"|"AZ"|"34.1733775"|"-109.7187111"|"7946"|"Boundary Butte"|""|"08-FEB-1980"
"Atascacita Springs"|"25831"|"Spring"|"Apache"|"AZ"|"34.1686557"|"-109.5175944"|"8064"|"Whiting Knoll"|""|"08-FEB-1980"
"Bear Wallow Spring"|"26136"|"Spring"|"Pima"|"AZ"|"32.4206289"|"-110.7317527"|"7940"|"Mount Bigelow"|""|"08-FEB-1980"
"Bellows Spring"|"26205"|"Spring"|"Santa Cruz"|"AZ"|"31.6998104"|"-110.8506418"|"8153"|"Mount Wrightson"|""|"08-FEB-1980"
"Bond Spring"|"26590"|"Spring"|"Cochise"|"AZ"|"31.3845452"|"-110.2973959"|"8215"|"Miller Peak"|""|"08-FEB-1980"
"Bosque Spring"|"26626"|"Spring"|"Apache"|"AZ"|"34.1592112"|"-109.6584315"|"8320"|"Boundary Butte"|""|"08-FEB-1980"
"Boy Scout Spring"|"26690"|"Spring"|"Pima"|"AZ"|"32.4116841"|"-110.7234312"|"8153"|"Mount Bigelow"|""|"08-FEB-1980"
"Brady Spring"|"26715"|"Spring"|"Apache"|"AZ"|"34.1769887"|"-109.6284309"|"8077"|"Boundary Butte"|""|"08-FEB-1980"
"Chase Spring"|"27525"|"Spring"|"Apache"|"AZ"|"34.0367470"|"-109.0800389"|"7858"|"Loco Knoll"|""|"08-FEB-1980"
"Cold Spring"|"27797"|"Spring"|"Pima"|"AZ"|"32.4467424"|"-110.7737071"|"8110"|"Mount Lemmon"|""|"08-FEB-1980"
"Cold Spring"|"27798"|"Spring"|"Apache"|"AZ"|"34.1183784"|"-109.7189883"|"8182"|"Horseshoe Cienega"|""|"08-FEB-1980"
"Coon Spring"|"27889"|"Spring"|"Apache"|"AZ"|"34.0601775"|"-109.3700242"|"8323"|"Eagar"|""|"08-FEB-1980"
"Coon Spring"|"27890"|"Spring"|"Apache"|"AZ"|"34.1758776"|"-109.6459313"|"7995"|"Boundary Butte"|""|"08-FEB-1980"
"Cowboy Spring"|"28098"|"Spring"|"Apache"|"AZ"|"34.0503239"|"-109.7275991"|"7877"|"Horseshoe Cienega"|""|"08-FEB-1980"
"Firebox Spring"|"29008"|"Spring"|"Apache"|"AZ"|"34.1516447"|"-109.7192794"|"8291"|"Boundary Butte"|""|"08-FEB-1980"
"Gooseberry Spring"|"29422"|"Spring"|"Apache"|"AZ"|"34.1147674"|"-109.6889874"|"8484"|"Horseshoe Cienega"|""|"08-FEB-1980"
"Gooseberry Springs"|"29423"|"Spring"|"Coconino"|"AZ"|"34.8152985"|"-111.4020914"|"7851"|"Hutch Mountain"|""|"08-FEB-1980"
"Horseshoe Spring"|"30199"|"Spring"|"Coconino"|"AZ"|"34.7819653"|"-111.4026466"|"7825"|"Hutch Mountain"|""|"08-FEB-1980"
"Iris Spring"|"30406"|"Spring"|"Apache"|"AZ"|"34.1305774"|"-109.5098612"|"8353"|"Whiting Knoll"|""|"08-FEB-1980"
"Italian Spring"|"30439"|"Spring"|"Pima"|"AZ"|"32.2290735"|"-110.5358927"|"7995"|"Mica Mountain"|""|"08-FEB-1980"
"Jackson Spring"|"30485"|"Spring"|"Apache"|"AZ"|"33.8108704"|"-109.1178411"|"8192"|"Luna Lake"|""|"08-FEB-1980"
"Kinglet Spring"|"30775"|"Spring"|"Pima"|"AZ"|"32.4473012"|"-110.7787454"|"8287"|"Mount Lemmon"|"01-JAN-1981"|"08-FEB-1980"
"Lemmon Spring"|"30942"|"Spring"|"Pima"|"AZ"|"32.4459088"|"-110.7917631"|"8287"|"Mount Lemmon"|""|"08-FEB-1980"
"Little Giant Spring"|"31067"|"Spring"|"Apache"|"AZ"|"34.1739333"|"-109.5723182"|"8363"|"Whiting Knoll"|""|"08-FEB-1980"
"Little Spring"|"31130"|"Spring"|"Coconino"|"AZ"|"35.3746408"|"-111.7253133"|"8297"|"Humphreys Peak"|"01-JAN-1911"|"08-FEB-1980"
"Little Valley Spring"|"31142"|"Spring"|"Apache"|"AZ"|"34.0385125"|"-109.3233957"|"8415"|"Eagar"|""|"08-FEB-1980"
"Lower Hutcherson Spring"|"31360"|"Spring"|"Apache"|"AZ"|"34.1661556"|"-109.6059301"|"8448"|"Whiting Knoll"|""|"08-FEB-1980"
"McCormick Spring"|"31638"|"Spring"|"Apache"|"AZ"|"34.1478718"|"-109.7736775"|"7808"|"Sponseller Mountain"|""|"08-FEB-1980"
"Middle Prong Spring"|"31822"|"Spring"|"Apache"|"AZ"|"33.8283842"|"-109.3792511"|"8491"|"Big Lake South"|""|"08-FEB-1980"
"Mud Spring"|"32109"|"Spring"|"Apache"|"AZ"|"33.9931035"|"-109.1143749"|"8435"|"Escudilla Mountain"|""|"08-FEB-1980"
"Neal Spring"|"32259"|"Spring"|"Apache"|"AZ"|"34.1942107"|"-109.6062083"|"7854"|"Whiting Knoll"|""|"08-FEB-1980"
"Negro Spring"|"32275"|"Spring"|"Apache"|"AZ"|"34.1911552"|"-109.6120417"|"7936"|"Whiting Knoll"|""|"08-FEB-1980"
"Newman Spring"|"32315"|"Spring"|"Coconino"|"AZ"|"35.4041052"|"-111.8647288"|"8422"|"Kendrick Peak"|""|"08-FEB-1980"
"Oak Spring"|"32462"|"Spring"|"Coconino"|"AZ"|"35.2440367"|"-111.5899839"|"8215"|"Flagstaff East"|""|"08-FEB-1980"
"Open Draw Spring"|"32537"|"Spring"|"Apache"|"AZ"|"33.8436620"|"-109.3434167"|"8481"|"Buffalo Crossing"|""|"08-FEB-1980"
"Orion Spring"|"32554"|"Spring"|"Coconino"|"AZ"|"35.2898926"|"-111.6370756"|"8153"|"Humphreys Peak"|""|"08-FEB-1980"
"Palisade Spring"|"32643"|"Spring"|"Pima"|"AZ"|"32.4092423"|"-110.7259254"|"8123"|"Mount Bigelow"|""|"08-FEB-1980"
"Pat Spring"|"32724"|"Spring"|"Coconino"|"AZ"|"35.3926023"|"-111.6898530"|"8182"|"White Horse Hills"|""|"08-FEB-1980"
"Pidgeon Spring"|"32871"|"Spring"|"Pima"|"AZ"|"32.4455231"|"-110.7742540"|"8287"|"Mount Lemmon"|""|"08-FEB-1980"
"Pierce Spring"|"32879"|"Spring"|"Apache"|"AZ"|"34.1423786"|"-109.7414904"|"8140"|"Boundary Butte"|""|"08-FEB-1980"
"Pine Spring"|"32970"|"Spring"|"Apache"|"AZ"|"34.1708776"|"-109.6828767"|"8015"|"Boundary Butte"|""|"08-FEB-1980"
"Pit Spring"|"33038"|"Spring"|"Apache"|"AZ"|"34.1620689"|"-109.7489332"|"7871"|"Boundary Butte"|""|"08-FEB-1980"
"Porter Spring"|"33116"|"Spring"|"Apache"|"AZ"|"34.1469891"|"-109.6923212"|"8491"|"Boundary Butte"|""|"08-FEB-1980"
"Quakie Patch Spring"|"33258"|"Spring"|"Apache"|"AZ"|"34.1639333"|"-109.7128774"|"8123"|"Boundary Butte"|""|"08-FEB-1980"
"Reservation Spring"|"33583"|"Spring"|"Apache"|"AZ"|"34.1253532"|"-109.7682230"|"7920"|"Sponseller Mountain"|""|"08-FEB-1980"
"Saffell Spring"|"33941"|"Spring"|"Apache"|"AZ"|"34.0509608"|"-109.2722554"|"8015"|"Eagar"|""|"08-FEB-1980"
"Skull Spring"|"34494"|"Spring"|"Greenlee"|"AZ"|"33.7706078"|"-109.2892466"|"8117"|"Buffalo Crossing"|""|"08-FEB-1980"
"Ted Spring"|"35172"|"Spring"|"Apache"|"AZ"|"34.0431221"|"-109.2352596"|"7844"|"Nelson Reservoir"|""|"08-FEB-1980"
"Thomas Spring"|"35272"|"Spring"|"Apache"|"AZ"|"34.0097227"|"-109.0736854"|"8136"|"Loco Knoll"|""|"08-FEB-1980"
"Turkey Spring"|"35572"|"Spring"|"Apache"|"AZ"|"34.1714332"|"-109.6645429"|"8054"|"Boundary Butte"|""|"08-FEB-1980"
"Wild Horse Spring"|"36169"|"Spring"|"Apache"|"AZ"|"34.0858789"|"-109.6964874"|"8327"|"Horseshoe Cienega"|""|"08-FEB-1980"
"Arts Spring"|"37156"|"Spring"|"Pima"|"AZ"|"32.2231305"|"-110.5314681"|"8117"|"Mica Mountain"|""|"27-JUN-1984"
"Jack Smith Spring Number Two"|"37854"|"Spring"|"Coconino"|"AZ"|"35.3572315"|"-111.5998505"|"7848"|"Sunset Crater West"|""|"27-JUN-1984"
"Apalee Spring"|"39000"|"Spring"|"Apache"|"AZ"|"33.7839409"|"-109.3048030"|"8245"|"Buffalo Crossing"|""|"27-JUN-1984"
"Bigelow Spring"|"39005"|"Spring"|"Apache"|"AZ"|"34.0667141"|"-109.3584211"|"8146"|"Eagar"|""|"27-JUN-1984"
"Heifer Spring"|"39055"|"Spring"|"Apache"|"AZ"|"33.7831074"|"-109.3289705"|"7943"|"Buffalo Crossing"|""|"27-JUN-1984"
"Los Burros Spring"|"39075"|"Spring"|"Apache"|"AZ"|"34.1412100"|"-109.7766479"|"7831"|"Sponseller Mountain"|""|"27-JUN-1984"
"Lost Spring"|"39076"|"Spring"|"Apache"|"AZ"|"33.7911616"|"-109.4923103"|"8484"|"Big Lake South"|""|"27-JUN-1984"
"Sawmill Spring"|"39134"|"Spring"|"Apache"|"AZ"|"33.9781893"|"-109.0541784"|"8428"|"Escudilla Mountain"|""|"27-JUN-1984"
"Sawmill Spring"|"39135"|"Spring"|"Apache"|"AZ"|"34.0581032"|"-109.3511985"|"8304"|"Eagar"|""|"27-JUN-1984"
"Soldier Spring"|"39148"|"Spring"|"Apache"|"AZ"|"33.7117202"|"-109.1606307"|"7828"|"Beaverhead"|""|"27-JUN-1984"
"Squirrel Spring"|"39155"|"Spring"|"Apache"|"AZ"|"34.0409075"|"-109.4595866"|"8284"|"Greer"|""|"27-JUN-1984"
"Stanford Spring"|"39156"|"Spring"|"Apache"|"AZ"|"33.8633853"|"-109.0936870"|"8432"|"Luna Lake"|""|"27-JUN-1984"
"Pat Scott Spring"|"39221"|"Spring"|"Cochise"|"AZ"|"31.4323210"|"-110.3425804"|"8222"|"Miller Peak"|""|"27-JUN-1984"
"Isabell Spring"|"40005"|"Spring"|"Greenlee"|"AZ"|"33.7686638"|"-109.1950767"|"7966"|"Alpine"|""|"27-JUN-1984"
"Johns Canyon Spring"|"40008"|"Spring"|"Greenlee"|"AZ"|"33.7703300"|"-109.2998026"|"7940"|"Buffalo Crossing"|""|"27-JUN-1984"
"Long Canyon Spring"|"40022"|"Spring"|"Greenlee"|"AZ"|"33.6936637"|"-109.3800825"|"8081"|"Hoodoo Knoll"|""|"27-JUN-1984"
"Upper Bear Spring"|"40118"|"Spring"|"Greenlee"|"AZ"|"33.5600542"|"-109.4042487"|"8284"|"Baldy Bill Point"|""|"27-JUN-1984"
"Middle Spring"|"41548"|"Spring"|"Apache"|"AZ"|"34.1211565"|"-109.5056489"|"8396"|"Greens Peak"|""|"01-DEC-1991"
"Twin Spring"|"41581"|"Spring"|"Apache"|"AZ"|"34.1144538"|"-109.5009717"|"8337"|"Greens Peak"|""|"01-DEC-1991"
"Eldeberry Spring"|"41616"|"Spring"|"Apache"|"AZ"|"34.0424936"|"-109.3000820"|"7982"|"Eagar"|""|"01-DEC-1991"
"Jake Spring"|"41656"|"Spring"|"Apache"|"AZ"|"34.1107020"|"-109.4987178"|"8287"|"Greer"|""|"01-DEC-1991"
"Duke Spring"|"41657"|"Spring"|"Apache"|"AZ"|"34.0727222"|"-109.4835341"|"8419"|"Greer"|""|"01-DEC-1991"
"Brian Spring"|"41663"|"Spring"|"Apache"|"AZ"|"34.0438569"|"-109.4017080"|"8163"|"Greer"|""|"01-DEC-1991"
"Melissa Spring"|"41692"|"Spring"|"Apache"|"AZ"|"34.0434094"|"-109.4026588"|"8163"|"Greer"|""|"01-DEC-1991"
"Side Canyon Spring"|"42095"|"Spring"|"Greenlee"|"AZ"|"33.7000525"|"-109.3853605"|"7848"|"Hoodoo Knoll"|""|"01-SEP-1992"
"ELC Flat Springs"|"42154"|"Spring"|"Apache"|"AZ"|"33.9181723"|"-109.0588423"|"8346"|"Escudilla Mountain"|""|"01-SEP-1992"
"Pearl Spring"|"42199"|"Spring"|"Greenlee"|"AZ"|"33.7319975"|"-109.2245216"|"8474"|"Beaverhead"|""|"01-SEP-1992"
"Upper Beaver Spring"|"42362"|"Spring"|"Apache"|"AZ"|"33.8621727"|"-109.1857403"|"8222"|"Alpine"|""|"01-SEP-1992"
"Willimans Valley Spring"|"42363"|"Spring"|"Apache"|"AZ"|"33.8638785"|"-109.1853940"|"8258"|"Alpine"|""|"01-SEP-1992"
"Rincon Spring"|"42406"|"Spring"|"Apache"|"AZ"|"33.8225525"|"-109.0842414"|"7999"|"Luna Lake"|""|"01-SEP-1992"
"Dump Flat Spring"|"42407"|"Spring"|"Apache"|"AZ"|"33.8185454"|"-109.0723957"|"7949"|"Luna Lake"|""|"01-SEP-1992"
"Frisco Spring"|"42408"|"Spring"|"Apache"|"AZ"|"33.8211637"|"-109.0675742"|"7877"|"Luna Lake"|""|"01-SEP-1992"
"Upper Tenney Spring"|"42410"|"Spring"|"Apache"|"AZ"|"33.8064416"|"-109.0736852"|"7910"|"Luna Lake"|""|"01-SEP-1992"
"Upper Long Cienega Spring"|"42411"|"Spring"|"Apache"|"AZ"|"33.7939416"|"-109.1020191"|"8074"|"Luna Lake"|""|"01-SEP-1992"
"Road Cienega Spring"|"42412"|"Spring"|"Apache"|"AZ"|"33.8034572"|"-109.0855770"|"7933"|"Luna Lake"|""|"01-SEP-1992"
"Carmen Spring Number One"|"42414"|"Spring"|"Apache"|"AZ"|"33.7986639"|"-109.0592402"|"7808"|"Luna Lake"|""|"01-SEP-1992"
"Tenney Meadow Spring"|"42415"|"Spring"|"Apache"|"AZ"|"33.8075527"|"-109.0700740"|"7940"|"Luna Lake"|""|"01-SEP-1992"
"Upper Road Cienega Spring"|"42418"|"Spring"|"Apache"|"AZ"|"33.8068876"|"-109.0951360"|"8028"|"Luna Lake"|""|"01-SEP-1992"
"Little Jackson Spring"|"42421"|"Spring"|"Apache"|"AZ"|"33.8175524"|"-109.1161867"|"8038"|"Luna Lake"|""|"01-SEP-1992"
"Lower Little Creek Spring"|"42428"|"Spring"|"Apache"|"AZ"|"33.8569965"|"-109.0878533"|"8284"|"Luna Lake"|""|"01-SEP-1992"
"Rosebud Cottonwood Cienega Spring"|"42434"|"Spring"|"Apache"|"AZ"|"33.9997719"|"-109.2439720"|"8064"|"Nutrioso"|""|"01-SEP-1992"
"Cameron Spring Number Two"|"42446"|"Spring"|"Apache"|"AZ"|"33.8031084"|"-109.0517400"|"7880"|"Luna Lake"|""|"01-SEP-1992"
"Little Spring"|"42447"|"Spring"|"Apache"|"AZ"|"33.8039417"|"-109.0639626"|"7917"|"Luna Lake"|""|"01-SEP-1992"
"Georges Spring"|"42561"|"Spring"|"Apache"|"AZ"|"33.8608852"|"-109.1378548"|"8251"|"Alpine"|""|"01-SEP-1992"
"Joes Spring"|"42564"|"Spring"|"Apache"|"AZ"|"33.8625981"|"-109.1618117"|"8117"|"Alpine"|""|"01-SEP-1992"
"Cienega Creek Spring"|"42566"|"Spring"|"Greenlee"|"AZ"|"33.7613947"|"-109.2314438"|"7887"|"Alpine"|""|"01-SEP-1992"
"Oquer Spring"|"44685"|"Spring"|"Coconino"|"AZ"|"36.5257332"|"-112.2425529"|"8320"|"Telephone Hill"|""|"27-JUN-1984"
"Gust Spring"|"44749"|"Spring"|"Apache"|"AZ"|"34.1703221"|"-109.6623206"|"7992"|"Boundary Butte"|""|"01-DEC-1991"
"Georges Spring"|"44775"|"Spring"|"Apache"|"AZ"|"33.8608589"|"-109.1377363"|"8251"|"Alpine"|""|"01-FEB-1992"
"Timp Spring"|"44808"|"Spring"|"Coconino"|"AZ"|"36.3876809"|"-112.2959087"|"7907"|"Timp Point"|""|"08-FEB-1980"
"Bathtub Spring"|"45001"|"Spring"|"Cochise"|"AZ"|"31.4067665"|"-110.3056354"|"8022"|"Miller Peak"|""|"01-DEC-1991"
"Milligan Saddle Spring"|"1852022"|"Spring"|"Apache"|"AZ"|"34.0286871"|"-109.2935124"|"8277"|"Eagar"|""|"25-OCT-1999"
"Milligan Valley Creek Spring Number 1"|"1852024"|"Spring"|"Apache"|"AZ"|"34.0275712"|"-109.2742891"|"8022"|"Eagar"|""|"25-OCT-1999"
"Wad Spring"|"1852027"|"Spring"|"Apache"|"AZ"|"34.0639364"|"-109.3514763"|"8176"|"Eagar"|""|"25-OCT-1999"
"Grapevine Spring"|"1852029"|"Spring"|"Apache"|"AZ"|"34.0581033"|"-109.3489762"|"8248"|"Eagar"|""|"25-OCT-1999"
"Bamke Spring"|"1853575"|"Spring"|"Apache"|"AZ"|"34.0178255"|"-109.4442565"|"8461"|"Greer"|""|"28-FEB-2000"
"Lone Wolf Spring"|"1853576"|"Spring"|"Apache"|"AZ"|"34.0186588"|"-109.4498123"|"8353"|"Greer"|""|"28-FEB-2000"
"Shelter Spring"|"1853577"|"Spring"|"Apache"|"AZ"|"34.0261588"|"-109.4234227"|"8478"|"Greer"|""|"28-FEB-2000"
"Half Tank Spring"|"1853578"|"Spring"|"Apache"|"AZ"|"34.0286588"|"-109.4239782"|"8419"|"Greer"|""|"28-FEB-2000"
"Ted Seep Spring"|"1853579"|"Spring"|"Apache"|"AZ"|"34.0631027"|"-109.4189786"|"8077"|"Greer"|""|"28-FEB-2000"
"Old Spring"|"1853580"|"Spring"|"Apache"|"AZ"|"33.8175509"|"-109.3878623"|"8346"|"Big Lake South"|""|"28-FEB-2000"
"Sandy Spring"|"1853626"|"Spring"|"Apache"|"AZ"|"33.8767183"|"-109.1523001"|"8494"|"Nutrioso"|""|"28-FEB-2000"
"Charlies Spring"|"1853627"|"Spring"|"Apache"|"AZ"|"33.8782127"|"-109.1529924"|"8419"|"Nutrioso"|""|"28-FEB-2000"
"Alpine Divide Spring"|"1853629"|"Spring"|"Apache"|"AZ"|"33.8914404"|"-109.1528559"|"8468"|"Nutrioso"|""|"28-FEB-2000"
"Carex Spring"|"1853630"|"Spring"|"Apache"|"AZ"|"33.9175511"|"-109.1686903"|"8284"|"Nutrioso"|""|"28-FEB-2000"
"Basin Spring"|"1853665"|"Spring"|"Apache"|"AZ"|"34.0675471"|"-109.3953667"|"7963"|"Greer"|""|"28-FEB-2000"
"Upper Spring"|"1853675"|"Spring"|"Apache"|"AZ"|"34.1239343"|"-109.5070379"|"8379"|"Greens Peak"|""|"28-FEB-2000"
"Little Meadow Spring"|"1985062"|"Spring"|"Apache"|"AZ"|"33.8411634"|"-109.0764638"|"8002"|"Luna Lake"|""|"27-JUN-1984"
"Skousen Spring"|"1985064"|"Spring"|"Apache"|"AZ"|"33.8394967"|"-109.0972977"|"8025"|"Luna Lake"|""|"27-JUN-1984"
"Camp Cienega Spring"|"1985067"|"Spring"|"Apache"|"AZ"|"33.8331080"|"-109.0739635"|"7913"|"Luna Lake"|""|"27-JUN-1984"
"Middle Leonard Number Two Spring"|"2056531"|"Spring"|"Coconino"|"AZ"|"34.3989207"|"-111.1462445"|"7887"|"Dane Canyon"|""|"27-JUN-1984"
"Big Spring"|"219263"|"Spring"|"Alpine"|"CA"|"38.6896294"|"-119.5973927"|"7828"|"Topaz Lake"|""|"19-JAN-1981"
"Black Canyon Spring"|"219347"|"Spring"|"Inyo"|"CA"|"37.3652894"|"-118.2048723"|"8438"|"Westgard Pass"|""|"19-JAN-1981"
"Clinton Spring"|"221229"|"Spring"|"Mono"|"CA"|"38.4413050"|"-119.2387661"|"7812"|"Sweetwater Creek"|""|"19-JAN-1981"
"Lakeview Spring"|"226825"|"Spring"|"Mono"|"CA"|"38.3593694"|"-119.1429787"|"7995"|"Bridgeport"|""|"19-JAN-1981"
"Logan Spring"|"227479"|"Spring"|"Mono"|"CA"|"38.3136431"|"-119.1356857"|"8199"|"Bridgeport"|""|"19-JAN-1981"
"McMillan Spring"|"228431"|"Spring"|"Mono"|"CA"|"38.3349175"|"-119.1470946"|"8117"|"Bridgeport"|""|"19-JAN-1981"
"Murphy Spring"|"229360"|"Spring"|"Mono"|"CA"|"38.1907418"|"-119.0559285"|"8136"|"Bodie"|""|"19-JAN-1981"
"Watterson Troughs"|"237358"|"Spring"|"Mono"|"CA"|"37.6805197"|"-118.6519247"|"7838"|"Watterson Canyon"|""|"19-JAN-1981"
"Wild Horse Spring"|"237763"|"Spring"|"Mono"|"CA"|"38.5407133"|"-119.3957478"|"7917"|"Risue Canyon"|""|"19-JAN-1981"
"Green Spring"|"242996"|"Spring"|"San Bernardino"|"CA"|"34.2108118"|"-116.7888152"|"8419"|"Moonridge"|""|"19-JAN-1981"
"Jail Spring"|"243986"|"Spring"|"Inyo"|"CA"|"36.1918244"|"-117.0977306"|"7969"|"Telescope Peak"|""|"19-JAN-1981"
"Lily Spring"|"244798"|"Spring"|"Los Angeles"|"CA"|"34.3452786"|"-117.8095053"|"8025"|"Crystal Lake"|""|"19-JAN-1981"
"Powderbox Spring"|"247755"|"Spring"|"Riverside"|"CA"|"33.7741145"|"-116.6766316"|"7858"|"San Jacinto Peak"|""|"19-JAN-1981"
"Strawberry Cienaga"|"249981"|"Spring"|"Riverside"|"CA"|"33.7855751"|"-116.6891840"|"8478"|"San Jacinto Peak"|""|"19-JAN-1981"
"Sachse Spring"|"252437"|"Spring"|"Tuolumne"|"CA"|"38.0810294"|"-119.8454565"|"7802"|"Kibbie Lake"|""|"01-AUG-1989"
"Tragedy Spring"|"255156"|"Spring"|"El Dorado"|"CA"|"38.6398065"|"-120.1469915"|"7946"|"Tragedy Spring"|"01-JAN-1981"|"19-JAN-1981"
"Bald Mountain Spring"|"256470"|"Spring"|"Mono"|"CA"|"37.7928056"|"-118.8812798"|"8225"|"Crestview"|""|"19-JAN-1981"
"Buzztail Spring"|"257789"|"Spring"|"Mono"|"CA"|"37.5496176"|"-118.8161222"|"8304"|"Convict Lake"|"01-JAN-1960"|"19-JAN-1981"
"Camp One Spring"|"257890"|"Spring"|"Lassen"|"CA"|"41.1660381"|"-120.1425149"|"7923"|"Emerson Peak"|""|"19-JAN-1981"
"Cowtrack Spring"|"258820"|"Spring"|"Mono"|"CA"|"37.9877195"|"-118.8158227"|"7874"|"Cowtrack Mountain"|"01-JAN-1964"|"19-JAN-1981"
"Fourth of July Spring"|"260310"|"Spring"|"Mono"|"CA"|"38.5437986"|"-119.3576638"|"7959"|"Desert Creek Peak"|""|"19-JAN-1981"
"Gaspipe Spring"|"260500"|"Spring"|"Mono"|"CA"|"37.8924654"|"-118.8484016"|"8012"|"Cowtrack Mountain"|""|"19-JAN-1981"
"Jackass Spring"|"261866"|"Spring"|"Mono"|"CA"|"38.5496048"|"-119.3746115"|"8012"|"Desert Creek Peak"|""|"19-JAN-1981"
"Lava Springs"|"262367"|"Spring"|"Mono"|"CA"|"38.4046206"|"-119.3948982"|"8369"|"Chris Flat"|""|"19-JAN-1981"
"Masonic Spring"|"263260"|"Spring"|"Mono"|"CA"|"38.3526950"|"-119.1223712"|"8343"|"Dome Hill"|""|"19-JAN-1981"
"Sagehen Spring"|"265730"|"Spring"|"Mono"|"CA"|"37.8658959"|"-118.8601881"|"8389"|"Dexter Canyon"|""|"19-JAN-1981"
"Cold Spring"|"270540"|"Spring"|"Kern"|"CA"|"35.4668353"|"-118.3967019"|"7959"|"Piute Peak"|""|"19-JAN-1981"
"Columbine Spring"|"270569"|"Spring"|"San Bernardino"|"CA"|"34.1357036"|"-116.9408730"|"8018"|"Big Bear Lake"|""|"19-JAN-1981"
"Manzanita Springs"|"272335"|"Spring"|"San Bernardino"|"CA"|"34.1386363"|"-116.9385919"|"8264"|"Big Bear Lake"|""|"19-JAN-1981"
"Missed Spring"|"272499"|"Spring"|"San Bernardino"|"CA"|"34.2051277"|"-116.7302611"|"7995"|"Onyx Peak"|""|"19-JAN-1981"
"Onyx Spring"|"272804"|"Spring"|"San Bernardino"|"CA"|"34.1892893"|"-116.6987151"|"8271"|"Onyx Peak"|""|"19-JAN-1981"
"Piute Spring"|"273041"|"Spring"|"Kern"|"CA"|"35.4469169"|"-118.3897741"|"8038"|"Piute Peak"|"01-JAN-1975"|"19-JAN-1981"
"Sam Spring"|"273428"|"Spring"|"Tulare"|"CA"|"36.0488346"|"-118.4028629"|"7953"|"Durrwood Creek"|""|"19-JAN-1981"
"Soda Springs"|"273800"|"Spring"|"Tulare"|"CA"|"36.2104954"|"-118.1786949"|"7880"|"Monache Mountain"|""|"19-JAN-1981"
"Soda Spring"|"274644"|"Spring"|"Tulare"|"CA"|"36.4320547"|"-118.5858032"|"8094"|"Mineral King"|""|"14-JUN-2000"
"Olivas Spring"|"1667447"|"Spring"|"Tulare"|"CA"|"36.2353531"|"-118.1992271"|"8031"|"Monache Mountain"|""|"01-JUN-1995"
"Snake Spring"|"1667618"|"Spring"|"Tulare"|"CA"|"35.9574474"|"-118.3823064"|"8314"|"Fairview"|""|"01-JUN-1995"
"Bumpass Hot Springs"|"1682363"|"Spring"|"Shasta"|"CA"|"40.4579084"|"-121.5020407"|"8192"|"Lassen Peak"|""|"26-APR-1996"
"Pearson Spring"|"1812911"|"Spring"|"Mono"|"CA"|"38.2133605"|"-119.0176418"|"8435"|"Bodie"|""|"17-MAR-1999"
"Slippery Jim Spring"|"169645"|"Spring"|"Moffat"|"CO"|"40.9986208"|"-109.0126593"|"8215"|"Willow Creek Butte"|""|"13-OCT-1978"
"Summit Spring"|"169646"|"Spring"|"Moffat"|"CO"|"40.9185781"|"-109.0094867"|"8192"|"Willow Creek Butte"|""|"13-OCT-1978"
"Honeymoon Spring"|"169648"|"Spring"|"Moffat"|"CO"|"40.9410911"|"-109.0295934"|"8310"|"Willow Creek Butte"|""|"13-OCT-1978"
"Morales Spring"|"169653"|"Spring"|"Moffat"|"CO"|"40.9222095"|"-108.9815623"|"8343"|"Beaver Basin"|""|"13-OCT-1978"
"Spitzie Spring"|"169654"|"Spring"|"Moffat"|"CO"|"40.9203507"|"-108.9358919"|"8359"|"Beaver Basin"|""|"13-OCT-1978"
"Jug Spring"|"169656"|"Spring"|"Moffat"|"CO"|"40.9199606"|"-108.9231726"|"8359"|"Beaver Basin"|""|"13-OCT-1978"
"Cottonwood Springs"|"169657"|"Spring"|"Moffat"|"CO"|"40.9160718"|"-108.9153945"|"8455"|"Beaver Basin"|""|"13-OCT-1978"
"Wash Spring"|"169658"|"Spring"|"Moffat"|"CO"|"40.9091006"|"-108.9321074"|"8484"|"Beaver Basin"|""|"13-OCT-1978"
"Bear Spring"|"169660"|"Spring"|"Moffat"|"CO"|"40.9005921"|"-108.9088403"|"8402"|"Beaver Basin"|""|"13-OCT-1978"
"Willow Springs"|"169661"|"Spring"|"Moffat"|"CO"|"40.8972598"|"-108.8939579"|"8356"|"Beaver Basin"|""|"13-OCT-1978"
"Willow Springs"|"169662"|"Spring"|"Moffat"|"CO"|"40.9219047"|"-108.9520623"|"8340"|"Beaver Basin"|""|"13-OCT-1978"
"Willow Spring"|"169667"|"Spring"|"Moffat"|"CO"|"40.9388495"|"-108.8951161"|"8297"|"Beaver Basin"|""|"13-OCT-1978"
"Antelope Spring"|"169672"|"Spring"|"Moffat"|"CO"|"40.9539919"|"-108.9244491"|"8104"|"Beaver Basin"|""|"13-OCT-1978"
"Richies Spring"|"169676"|"Spring"|"Moffat"|"CO"|"40.9663486"|"-108.9795630"|"8209"|"Beaver Basin"|""|"13-OCT-1978"
"Coyote Spring"|"169697"|"Spring"|"Moffat"|"CO"|"40.8766285"|"-108.8262252"|"8284"|"Sparks"|""|"13-OCT-1978"
"Box Spring"|"169744"|"Spring"|"Moffat"|"CO"|"40.8852451"|"-107.4381186"|"7871"|"Bakers Peak"|""|"13-OCT-1978"
"Elk Springs"|"169797"|"Spring"|"Moffat"|"CO"|"40.8557958"|"-108.7751124"|"7926"|"Big Joe Basin"|""|"13-OCT-1978"
"Chicken Spring"|"169798"|"Spring"|"Moffat"|"CO"|"40.8666290"|"-108.7834461"|"7953"|"Big Joe Basin"|""|"13-OCT-1978"
"Swede Spring"|"169800"|"Spring"|"Moffat"|"CO"|"40.8746842"|"-108.8103914"|"8202"|"Big Joe Basin"|""|"13-OCT-1978"
"Cold Spring"|"169801"|"Spring"|"Moffat"|"CO"|"40.8669007"|"-108.8278380"|"8284"|"Big Joe Basin"|""|"13-OCT-1978"
"Bassett Spring"|"169802"|"Spring"|"Moffat"|"CO"|"40.8568831"|"-108.8122925"|"8202"|"Big Joe Basin"|""|"13-OCT-1978"
"Whiskey Springs"|"170072"|"Spring"|"Larimer"|"CO"|"40.9458344"|"-105.9387070"|"8317"|"Crazy Mountain"|""|"13-OCT-1978"
"Owl Spring"|"170098"|"Spring"|"Larimer"|"CO"|"40.9530344"|"-105.7494429"|"8471"|"Eaton Reservoir"|""|"13-OCT-1978"
"Mill Creek Spring"|"170109"|"Spring"|"Larimer"|"CO"|"40.9797073"|"-105.5272147"|"8081"|"Diamond Peak"|""|"13-OCT-1978"
"Crystal Spring"|"170325"|"Spring"|"Jackson"|"CO"|"40.8680844"|"-106.2456180"|"8064"|"Eagle Hill"|""|"13-OCT-1978"
"Daisy Spring"|"170632"|"Spring"|"Moffat"|"CO"|"40.5786112"|"-108.7403381"|"7802"|"Greystone"|""|"13-OCT-1978"
"Mantle Spring"|"170763"|"Spring"|"Moffat"|"CO"|"40.4273544"|"-108.7789127"|"8133"|"Tanks Peak"|""|"13-OCT-1978"
"Birch Spring"|"170829"|"Spring"|"Moffat"|"CO"|"40.3305249"|"-108.7556639"|"7802"|"Lazy Y Point"|""|"13-OCT-1978"
"Bearwater Spring"|"170842"|"Spring"|"Moffat"|"CO"|"40.3064066"|"-108.8879164"|"8074"|"Plug Hat Rock"|""|"13-OCT-1978"
"Blue Mountain Spring Number 3"|"170843"|"Spring"|"Moffat"|"CO"|"40.3021899"|"-108.9031690"|"7920"|"Plug Hat Rock"|""|"13-OCT-1978"
"East Moose Head Spring"|"170936"|"Spring"|"Moffat"|"CO"|"40.3321899"|"-108.8723348"|"7861"|"Lazy Y Point"|""|"13-OCT-1978"
"Angel Spring"|"171210"|"Spring"|"Moffat"|"CO"|"40.7160819"|"-107.3206157"|"8497"|"Slide Mountain"|""|"13-OCT-1978"
"Coal Spring"|"171638"|"Spring"|"Moffat"|"CO"|"40.2391379"|"-108.0073013"|"7864"|"White Rock"|""|"13-OCT-1978"
"Moonshine Spring"|"171640"|"Spring"|"Moffat"|"CO"|"40.2269157"|"-108.0034122"|"8277"|"White Rock"|""|"13-OCT-1978"
"Brushy Point Spring"|"172018"|"Spring"|"Rio Blanco"|"CO"|"39.7246991"|"-108.7259338"|"8284"|"Brushy Point"|""|"13-OCT-1978"
"Ponderosa Spring"|"172022"|"Spring"|"Rio Blanco"|"CO"|"39.6796988"|"-108.7181554"|"8104"|"Brushy Point"|""|"13-OCT-1978"
"Figure Four Spring"|"172049"|"Spring"|"Rio Blanco"|"CO"|"39.7154281"|"-108.4867599"|"7956"|"Figure Four Spring"|""|"13-OCT-1978"
"Lone Spring"|"172091"|"Spring"|"Garfield"|"CO"|"39.5921956"|"-109.0501087"|"8202"|"Rat Hole Ridge"|""|"13-OCT-1978"
"Earl Spring"|"172124"|"Spring"|"Garfield"|"CO"|"39.6024760"|"-108.8089907"|"8041"|"Douglas Pass"|""|"13-OCT-1978"
"Fourth Water Spring"|"172146"|"Spring"|"Garfield"|"CO"|"39.5411633"|"-108.5103256"|"8077"|"Henderson Ridge"|""|"13-OCT-1978"
"Sheep Corral Spring"|"172147"|"Spring"|"Garfield"|"CO"|"39.5536481"|"-108.5616862"|"8281"|"Henderson Ridge"|""|"13-OCT-1978"
"Huntley Spring"|"172148"|"Spring"|"Garfield"|"CO"|"39.5596558"|"-108.5688285"|"8294"|"Henderson Ridge"|""|"13-OCT-1978"
"Henderson Spring"|"172149"|"Spring"|"Garfield"|"CO"|"39.5675652"|"-108.5767941"|"8396"|"Henderson Ridge"|""|"13-OCT-1978"
"Toms Spring"|"172150"|"Spring"|"Garfield"|"CO"|"39.5636742"|"-108.5938177"|"8435"|"Henderson Ridge"|""|"13-OCT-1978"
"Horse Spring"|"172152"|"Spring"|"Garfield"|"CO"|"39.5915802"|"-108.5853466"|"8399"|"Henderson Ridge"|""|"13-OCT-1978"
"Camp Gulch Spring"|"172154"|"Spring"|"Garfield"|"CO"|"39.5871573"|"-108.5059118"|"8031"|"Henderson Ridge"|""|"13-OCT-1978"
"Mud Spring"|"172155"|"Spring"|"Garfield"|"CO"|"39.5921709"|"-108.5165020"|"8064"|"Henderson Ridge"|""|"13-OCT-1978"
"Franklin Spring"|"172156"|"Spring"|"Garfield"|"CO"|"39.5976136"|"-108.6037015"|"8474"|"Henderson Ridge"|""|"13-OCT-1978"
"Kaiser Spring"|"172158"|"Spring"|"Garfield"|"CO"|"39.6024823"|"-108.5449045"|"8153"|"Henderson Ridge"|""|"13-OCT-1978"
"Bear Keg Spring"|"172159"|"Spring"|"Garfield"|"CO"|"39.6144755"|"-108.5297963"|"7979"|"Henderson Ridge"|""|"13-OCT-1978"
"Second Water Spring"|"172174"|"Spring"|"Garfield"|"CO"|"39.5426367"|"-108.5203720"|"8127"|"Henderson Ridge"|""|"13-OCT-1978"
"Third Water Spring"|"172175"|"Spring"|"Garfield"|"CO"|"39.5406719"|"-108.5159755"|"8094"|"Henderson Ridge"|""|"13-OCT-1978"
"Moore Spring"|"172176"|"Spring"|"Garfield"|"CO"|"39.5404854"|"-108.5306013"|"8127"|"Henderson Ridge"|""|"13-OCT-1978"
"Little Water Spring"|"172177"|"Spring"|"Garfield"|"CO"|"39.5431986"|"-108.5399163"|"8153"|"Henderson Ridge"|""|"13-OCT-1978"
"First Water Spring"|"172180"|"Spring"|"Garfield"|"CO"|"39.5447909"|"-108.5589289"|"8274"|"Henderson Ridge"|""|"13-OCT-1978"
"Poverty Spring"|"172181"|"Spring"|"Garfield"|"CO"|"39.5390460"|"-108.5570730"|"8310"|"Henderson Ridge"|""|"13-OCT-1978"
"Trail Gulch Spring"|"172182"|"Spring"|"Garfield"|"CO"|"39.5312060"|"-108.5605953"|"8314"|"Henderson Ridge"|""|"13-OCT-1978"
"Mud Spring"|"172184"|"Spring"|"Garfield"|"CO"|"39.5225365"|"-108.6096871"|"8478"|"Henderson Ridge"|""|"13-OCT-1978"
"Lone Tree Spring"|"172231"|"Spring"|"Garfield"|"CO"|"39.5162278"|"-108.0933997"|"8153"|"Forked Gulch"|""|"13-OCT-1978"
"Antelope Spring"|"172413"|"Spring"|"Jackson"|"CO"|"40.6480577"|"-106.3280338"|"8163"|"Walden"|""|"13-OCT-1978"
"Case Spring"|"172422"|"Spring"|"Jackson"|"CO"|"40.7039398"|"-106.3128520"|"8123"|"Walden"|""|"13-OCT-1978"
"Green Spring"|"172423"|"Spring"|"Jackson"|"CO"|"40.7152544"|"-106.3366947"|"8146"|"Walden"|""|"13-OCT-1978"
"Widow Spring"|"173752"|"Spring"|"Rio Blanco"|"CO"|"39.8669226"|"-107.6953426"|"8428"|"Triangle Park"|""|"13-OCT-1978"
"Bear Spring"|"173931"|"Spring"|"Garfield"|"CO"|"39.6956057"|"-107.5614059"|"8359"|"Deep Creek Point"|""|"13-OCT-1978"
"Big Spring"|"174176"|"Spring"|"Garfield"|"CO"|"39.4433527"|"-108.5293552"|"8136"|"Middle Dry Fork"|""|"13-OCT-1978"
"Bull Spring"|"174183"|"Spring"|"Garfield"|"CO"|"39.4900275"|"-108.5042619"|"8077"|"Middle Dry Fork"|""|"13-OCT-1978"
"Rim Spring"|"174184"|"Spring"|"Garfield"|"CO"|"39.4853956"|"-108.5437833"|"8120"|"Middle Dry Fork"|""|"13-OCT-1978"
"East Wiley Spring"|"174185"|"Spring"|"Garfield"|"CO"|"39.4879765"|"-108.5487413"|"8215"|"Middle Dry Fork"|""|"13-OCT-1978"
"West Wiley Spring"|"174186"|"Spring"|"Garfield"|"CO"|"39.4936699"|"-108.5528803"|"8218"|"Middle Dry Fork"|""|"13-OCT-1978"
"Blanc Spring"|"174188"|"Spring"|"Garfield"|"CO"|"39.4771096"|"-108.5857487"|"8300"|"Middle Dry Fork"|""|"13-OCT-1978"
"McMullin Spring"|"174200"|"Spring"|"Garfield"|"CO"|"39.4858935"|"-108.4727018"|"8058"|"The Saddle"|""|"13-OCT-1978"
"East Spring"|"174201"|"Spring"|"Garfield"|"CO"|"39.4891294"|"-108.4831321"|"8061"|"The Saddle"|""|"13-OCT-1978"
"Wire Spring"|"174202"|"Spring"|"Garfield"|"CO"|"39.4888297"|"-108.4917828"|"8028"|"The Saddle"|""|"13-OCT-1978"
"Barrel Spring"|"174203"|"Spring"|"Garfield"|"CO"|"39.4878431"|"-108.5004256"|"8123"|"Middle Dry Fork"|""|"13-OCT-1978"
"Pritchard Spring"|"174235"|"Spring"|"Garfield"|"CO"|"39.4458219"|"-108.1822677"|"8340"|"Red Pinnacle"|""|"13-OCT-1978"
"Hayward Spring"|"174240"|"Spring"|"Garfield"|"CO"|"39.4937028"|"-108.1864257"|"8090"|"Red Pinnacle"|""|"13-OCT-1978"
"Uncle Bob Spring"|"174778"|"Spring"|"Garfield"|"CO"|"39.3904062"|"-107.5743297"|"7903"|"Gibson Gulch"|""|"13-OCT-1978"
"Grouse Spring"|"175458"|"Spring"|"Delta"|"CO"|"39.0034047"|"-107.5410581"|"7802"|"Electric Mountain"|""|"13-OCT-1978"
"Split Trough Spring"|"175757"|"Spring"|"Eagle"|"CO"|"39.9041537"|"-106.6755925"|"8071"|"McCoy"|""|"13-OCT-1978"
"Iron Spring"|"175804"|"Spring"|"Eagle"|"CO"|"39.8605427"|"-106.7214262"|"8373"|"State Bridge"|""|"13-OCT-1978"
"Dodo Spring"|"175817"|"Spring"|"Eagle"|"CO"|"39.7749865"|"-106.5930894"|"8172"|"Lava Creek"|""|"13-OCT-1978"
"Grass Gulch Spring"|"175833"|"Spring"|"Eagle"|"CO"|"39.7991531"|"-106.5486443"|"8218"|"Lava Creek"|""|"13-OCT-1978"
"Mud Spring"|"175998"|"Spring"|"Eagle"|"CO"|"39.5344629"|"-106.9189443"|"8392"|"Suicide Mountain"|""|"13-OCT-1978"
"Happy Jack Spring"|"176060"|"Spring"|"Eagle"|"CO"|"39.5994877"|"-106.6928691"|"8307"|"Fulford"|""|"13-OCT-1978"
"White Spring"|"176061"|"Spring"|"Eagle"|"CO"|"39.5997078"|"-106.7033689"|"8104"|"Fulford"|""|"13-OCT-1978"
"Fourmile Spring"|"176254"|"Spring"|"Eagle"|"CO"|"39.7121795"|"-106.8488925"|"8045"|"Eagle"|""|"13-OCT-1978"
"Quakie Spring"|"176305"|"Spring"|"San Miguel"|"CO"|"37.9199911"|"-108.8428806"|"7979"|"Joe Davis Hill"|""|"13-OCT-1978"
"Sawmill Spring"|"176307"|"Spring"|"San Miguel"|"CO"|"37.8999539"|"-108.8491577"|"7979"|"Joe Davis Hill"|""|"13-OCT-1978"
"Sandys Fort Spring"|"176363"|"Spring"|"San Miguel"|"CO"|"37.9621139"|"-108.4243926"|"8382"|"North Mountain"|""|"13-OCT-1978"
"Nelson Springs"|"176379"|"Spring"|"San Miguel"|"CO"|"37.9536031"|"-108.2853591"|"8228"|"Lone Cone"|""|"13-OCT-1978"
"Big Water Spring"|"176451"|"Spring"|"Dolores"|"CO"|"37.8399891"|"-108.7612120"|"8241"|"Secret Canyon"|""|"13-OCT-1978"
"Bankston Spring"|"176452"|"Spring"|"Dolores"|"CO"|"37.8588784"|"-108.7559338"|"8166"|"Secret Canyon"|""|"13-OCT-1978"
"Snyder Spring"|"176456"|"Spring"|"Dolores"|"CO"|"37.7955652"|"-108.6981212"|"8209"|"The Glade"|""|"13-OCT-1978"
"Garbarero Spring"|"176457"|"Spring"|"Dolores"|"CO"|"37.7940255"|"-108.6858808"|"8153"|"The Glade"|""|"13-OCT-1978"
"White Sands Spring"|"176460"|"Spring"|"Dolores"|"CO"|"37.8291300"|"-108.6739861"|"8081"|"The Glade"|""|"13-OCT-1978"
"Cottonwood Spring"|"176461"|"Spring"|"Dolores"|"CO"|"37.8322575"|"-108.6810649"|"8084"|"The Glade"|""|"13-OCT-1978"
"Rock Spring"|"176464"|"Spring"|"Dolores"|"CO"|"37.8161009"|"-108.6592640"|"8182"|"The Glade"|""|"13-OCT-1978"
"Evans Spring"|"176467"|"Spring"|"Dolores"|"CO"|"37.8193236"|"-108.6497089"|"8002"|"The Glade"|""|"13-OCT-1978"
"Wolf Den Spring"|"176471"|"Spring"|"Dolores"|"CO"|"37.8334376"|"-108.7037210"|"8136"|"The Glade"|""|"13-OCT-1978"
"Pat Spring"|"176472"|"Spring"|"Dolores"|"CO"|"37.8386008"|"-108.6925983"|"8113"|"The Glade"|""|"13-OCT-1978"
"Pine Arroyo Spring"|"176478"|"Spring"|"Dolores"|"CO"|"37.8486008"|"-108.7087100"|"7887"|"The Glade"|""|"13-OCT-1978"
"Peeled Pine Spring"|"176488"|"Spring"|"Dolores"|"CO"|"37.7672172"|"-108.7067080"|"7989"|"The Glade"|""|"13-OCT-1978"
"Wild Bill Spring"|"176491"|"Spring"|"Dolores"|"CO"|"37.7735679"|"-108.7191133"|"7979"|"The Glade"|"01-JAN-1967"|"13-OCT-1978"
"Little Bill Spring"|"176493"|"Spring"|"Dolores"|"CO"|"37.7788773"|"-108.7106551"|"8087"|"The Glade"|""|"13-OCT-1978"
"Ferris Spring"|"176628"|"Spring"|"Dolores"|"CO"|"37.6468828"|"-108.6256519"|"7880"|"Doe Canyon"|""|"13-OCT-1978"
"Narraguinnep Spring"|"176643"|"Spring"|"Dolores"|"CO"|"37.7299905"|"-108.5764835"|"8028"|"Narraguinnep Mountain"|""|"13-OCT-1978"
"Trimble Spring"|"176683"|"Spring"|"Dolores"|"CO"|"37.6594364"|"-108.5067585"|"7923"|"Narraguinnep Mountain"|""|"13-OCT-1978"
"Sagebrush Spring"|"176690"|"Spring"|"Dolores"|"CO"|"37.6563810"|"-108.4889800"|"7890"|"Willow Spring"|""|"13-OCT-1978"
"Willow Spring"|"176696"|"Spring"|"Dolores"|"CO"|"37.6691594"|"-108.3945317"|"8018"|"Willow Spring"|""|"13-OCT-1978"
"Hoppe Point Spring"|"176866"|"Spring"|"Montezuma"|"CO"|"37.6161025"|"-108.5687051"|"7884"|"Trimble Point"|""|"13-OCT-1978"
"Log Camp Spring"|"176869"|"Spring"|"Montezuma"|"CO"|"37.6088934"|"-108.5604484"|"8038"|"Trimble Point"|""|"13-OCT-1978"
"Peel Spring"|"176887"|"Spring"|"Montezuma"|"CO"|"37.5844373"|"-108.4261996"|"7874"|"Boggy Draw"|""|"13-OCT-1978"
"Stump Spring"|"176889"|"Spring"|"Montezuma"|"CO"|"37.6074930"|"-108.3942538"|"8254"|"Boggy Draw"|""|"13-OCT-1978"
"Horse Barn Spring"|"176892"|"Spring"|"Montezuma"|"CO"|"37.5849930"|"-108.4123101"|"8120"|"Boggy Draw"|""|"13-OCT-1978"
"Coalbank Spring"|"176915"|"Spring"|"Montezuma"|"CO"|"37.5452715"|"-108.3453629"|"8317"|"Stoner"|""|"13-OCT-1978"
"Longwill Spring"|"176918"|"Spring"|"Montezuma"|"CO"|"37.5690494"|"-108.3549085"|"8461"|"Stoner"|""|"13-OCT-1978"
"Vick Spring"|"176923"|"Spring"|"Montezuma"|"CO"|"37.6124934"|"-108.3386961"|"8251"|"Stoner"|""|"13-OCT-1978"
"Cedar Spring"|"176947"|"Spring"|"Montezuma"|"CO"|"37.5210787"|"-108.3374080"|"7946"|"Stoner"|""|"13-OCT-1978"
"Wilkerson Spring"|"176948"|"Spring"|"Montezuma"|"CO"|"37.5097325"|"-108.3705306"|"8038"|"Stoner"|""|"13-OCT-1978"
"Rock Spring"|"176954"|"Spring"|"Montezuma"|"CO"|"37.5158273"|"-108.3264733"|"8209"|"Stoner"|""|"13-OCT-1978"
"Camman Spring"|"177121"|"Spring"|"Larimer"|"CO"|"40.6438705"|"-105.5272177"|"8028"|"Rustic"|""|"13-OCT-1978"
"Bedsprings Spring"|"177122"|"Spring"|"Larimer"|"CO"|"40.6358150"|"-105.5491633"|"8379"|"Rustic"|""|"13-OCT-1978"
"Jacob Spring"|"177966"|"Spring"|"Larimer"|"CO"|"40.3310951"|"-105.4936088"|"7999"|"Panorama Peak"|""|"13-OCT-1978"
"Wilson Spring"|"177990"|"Spring"|"Larimer"|"CO"|"40.2852622"|"-105.4461072"|"8156"|"Panorama Peak"|""|"13-OCT-1978"
"Soda Spring"|"178132"|"Spring"|"Grand"|"CO"|"40.1952633"|"-105.8750132"|"8320"|"Trail Mountain"|""|"13-OCT-1978"
"Sourdough Spring"|"179411"|"Spring"|"Eagle"|"CO"|"39.4963266"|"-106.8939046"|"8435"|"Toner Reservoir"|""|"13-OCT-1978"
"Adam Mountain Spring"|"179439"|"Spring"|"Eagle"|"CO"|"39.4912796"|"-106.7484624"|"8192"|"Crooked Creek Pass"|""|"13-OCT-1978"
"Wainwright Spring"|"184105"|"Spring"|"Hinsdale"|"CO"|"37.4726219"|"-107.1547235"|"8327"|"Oakbrush Ridge"|""|"13-OCT-1978"
"Turkey Park Spring"|"184108"|"Spring"|"Hinsdale"|"CO"|"37.4571070"|"-107.2118731"|"8346"|"Oakbrush Ridge"|""|"13-OCT-1978"
"Pole Park Spring"|"184109"|"Spring"|"Hinsdale"|"CO"|"37.4716361"|"-107.2102309"|"8350"|"Oakbrush Ridge"|""|"13-OCT-1978"
"Chub Spring"|"184111"|"Spring"|"Hinsdale"|"CO"|"37.4760455"|"-107.1827397"|"8350"|"Oakbrush Ridge"|""|"13-OCT-1978"
"Notch Spring"|"184112"|"Spring"|"Hinsdale"|"CO"|"37.4869124"|"-107.2291200"|"8218"|"Oakbrush Ridge"|""|"13-OCT-1978"
"Rock Spring"|"184209"|"Spring"|"La Plata"|"CO"|"37.3425027"|"-107.5520008"|"8277"|"Ludwig Mountain"|""|"13-OCT-1978"
"Crib Spring"|"184240"|"Spring"|"Archuleta"|"CO"|"37.2925031"|"-107.4392186"|"8281"|"Baldy Mountain"|""|"13-OCT-1978"
"Muddy Lakes Spring"|"184244"|"Spring"|"Archuleta"|"CO"|"37.2941698"|"-107.4383853"|"8379"|"Baldy Mountain"|""|"13-OCT-1978"
"Jungle Spring"|"184245"|"Spring"|"Archuleta"|"CO"|"37.2983364"|"-107.4408855"|"8412"|"Baldy Mountain"|""|"13-OCT-1978"
"Rock Spring"|"184252"|"Spring"|"Archuleta"|"CO"|"37.3158362"|"-107.4578307"|"8399"|"Baldy Mountain"|""|"13-OCT-1978"
"Snyder Spring"|"184253"|"Spring"|"Archuleta"|"CO"|"37.3258362"|"-107.4769981"|"8199"|"Baldy Mountain"|""|"13-OCT-1978"
"Lost Spring"|"184300"|"Spring"|"Archuleta"|"CO"|"37.3175032"|"-107.2064345"|"8235"|"Chris Mountain"|""|"13-OCT-1978"
"Butcher Spring"|"184312"|"Spring"|"Archuleta"|"CO"|"37.2842827"|"-107.1718078"|"7917"|"Chris Mountain"|""|"13-OCT-1978"
"Mud Spring"|"184322"|"Spring"|"Archuleta"|"CO"|"37.3188299"|"-107.1644505"|"8038"|"Chris Mountain"|""|"13-OCT-1978"
"Hotz Spring"|"184323"|"Spring"|"Archuleta"|"CO"|"37.3144477"|"-107.2000454"|"7884"|"Chris Mountain"|""|"13-OCT-1978"
"McGinley Spring"|"185175"|"Spring"|"Mesa"|"CO"|"38.8783170"|"-108.8767716"|"8438"|"Bieser Creek"|""|"13-OCT-1978"
"Maiden Spring"|"185187"|"Spring"|"Mesa"|"CO"|"38.8847058"|"-108.8603821"|"8281"|"Payne Wash"|""|"13-OCT-1978"
"Big Spring"|"185204"|"Spring"|"Mesa"|"CO"|"38.9117123"|"-108.6449199"|"8254"|"Glade Park"|""|"13-OCT-1978"
"Thrailkill Spring"|"185205"|"Spring"|"Mesa"|"CO"|"38.9151572"|"-108.6374188"|"8195"|"Glade Park"|""|"13-OCT-1978"
"Monument Spring"|"185207"|"Spring"|"Mesa"|"CO"|"38.9279670"|"-108.7073375"|"8297"|"Glade Park"|""|"13-OCT-1978"
"End Spring"|"185220"|"Spring"|"Mesa"|"CO"|"38.9150541"|"-108.6040870"|"7910"|"Island Mesa"|""|"13-OCT-1978"
"Notch Spring"|"185221"|"Spring"|"Mesa"|"CO"|"38.9111413"|"-108.6135509"|"8077"|"Island Mesa"|""|"13-OCT-1978"
"Bramier Spring"|"185909"|"Spring"|"Montrose"|"CO"|"38.3308222"|"-108.3395274"|"8435"|"Ute"|""|"13-OCT-1978"
"Blue Mud Spring"|"185910"|"Spring"|"Montrose"|"CO"|"38.3237928"|"-108.3406107"|"8323"|"Ute"|""|"13-OCT-1978"
"Burnt Stump Spring"|"186064"|"Spring"|"Montrose"|"CO"|"38.2232119"|"-108.1724005"|"7949"|"Sanborn Park"|""|"13-OCT-1978"
"Dollarhide Spring"|"186085"|"Spring"|"Montrose"|"CO"|"38.1849202"|"-108.1824309"|"7877"|"Sanborn Park"|""|"13-OCT-1978"
"Clay Creek Spring"|"186086"|"Spring"|"Montrose"|"CO"|"38.1860472"|"-108.1359932"|"8048"|"Sanborn Park"|""|"13-OCT-1978"
"Little Gutshall Spring"|"186088"|"Spring"|"Montrose"|"CO"|"38.1702677"|"-108.1961881"|"7887"|"Sanborn Park"|""|"13-OCT-1978"
"Impson Spring"|"186093"|"Spring"|"Montrose"|"CO"|"38.1562223"|"-108.1865427"|"7943"|"Sanborn Park"|""|"13-OCT-1978"
"Mud Spring"|"186101"|"Spring"|"San Miguel"|"CO"|"38.1520799"|"-108.1354443"|"8215"|"Sanborn Park"|""|"13-OCT-1978"
"Tommy Pond Spring"|"186107"|"Spring"|"Montrose"|"CO"|"38.2367262"|"-108.0924889"|"8363"|"Hotchkiss Reservoir"|""|"13-OCT-1978"
"Turkey Plot Spring"|"186116"|"Spring"|"Montrose"|"CO"|"38.2141800"|"-108.1034124"|"8215"|"Hotchkiss Reservoir"|""|"13-OCT-1978"
"Z K Spring"|"186120"|"Spring"|"Montrose"|"CO"|"38.2029638"|"-108.0849025"|"8402"|"Hotchkiss Reservoir"|""|"13-OCT-1978"
"Cy Orr Spring"|"186193"|"Spring"|"San Miguel"|"CO"|"38.0099022"|"-108.2848588"|"8166"|"Oak Hill"|""|"13-OCT-1978"
"Herndon Spring"|"186196"|"Spring"|"San Miguel"|"CO"|"38.0345838"|"-108.2794733"|"8241"|"Oak Hill"|""|"13-OCT-1978"
"Sawmill Spring"|"186201"|"Spring"|"San Miguel"|"CO"|"38.0347876"|"-108.3655178"|"7802"|"Oak Hill"|""|"13-OCT-1978"
"Lindsey Spring"|"186202"|"Spring"|"San Miguel"|"CO"|"38.0435174"|"-108.3138008"|"8136"|"Oak Hill"|""|"13-OCT-1978"
"Flatiron Spring"|"186226"|"Spring"|"San Miguel"|"CO"|"38.1180475"|"-108.1195576"|"8002"|"Placerville"|""|"13-OCT-1978"
"Galloway Spring"|"186227"|"Spring"|"San Miguel"|"CO"|"38.0951620"|"-108.1000506"|"8179"|"Placerville"|""|"13-OCT-1978"
"Saint Joe Spring"|"186228"|"Spring"|"San Miguel"|"CO"|"38.0940394"|"-108.1254799"|"8104"|"Gurley Canyon"|""|"13-OCT-1978"
"Lost Spring"|"186238"|"Spring"|"San Miguel"|"CO"|"38.1193433"|"-108.0731897"|"8435"|"Placerville"|""|"13-OCT-1978"
"Lions Spring"|"186869"|"Spring"|"Montrose"|"CO"|"38.5741331"|"-107.7134225"|"7858"|"Grizzly Ridge"|""|"13-OCT-1978"
"Mud Springs"|"188163"|"Spring"|"Montrose"|"CO"|"38.4194329"|"-107.5611698"|"8238"|"Cimarron"|""|"13-OCT-1978"
"Tenmile Springs"|"188205"|"Spring"|"Gunnison"|"CO"|"38.3949934"|"-107.1975535"|"8343"|"Carpenter Ridge"|""|"13-OCT-1978"
"Big Springs"|"188218"|"Spring"|"Gunnison"|"CO"|"38.3997147"|"-107.0778269"|"8392"|"Big Mesa"|""|"13-OCT-1978"
"Brown Spring"|"188230"|"Spring"|"Ouray"|"CO"|"38.2881205"|"-107.9721867"|"8382"|"Government Springs"|""|"13-OCT-1978"
"Government Springs"|"188231"|"Spring"|"Ouray"|"CO"|"38.2602665"|"-107.9089527"|"8153"|"Government Springs"|""|"13-OCT-1978"
"Branson Spring"|"188234"|"Spring"|"Ouray"|"CO"|"38.3048714"|"-107.9740682"|"8104"|"Government Springs"|""|"13-OCT-1978"
"Cebolla Hot Springs"|"188346"|"Spring"|"Gunnison"|"CO"|"38.2737822"|"-107.0986816"|"8094"|"Powderhorn"|""|"13-OCT-1978"
"Montgomery Spring"|"188402"|"Spring"|"Ouray"|"CO"|"38.1299910"|"-107.7975609"|"8209"|"Ridgway"|""|"13-OCT-1978"
"Danforth Spring"|"188410"|"Spring"|"Ouray"|"CO"|"38.1950475"|"-107.8532418"|"8481"|"Ridgway"|""|"13-OCT-1978"
"McKean Spring"|"188416"|"Spring"|"Ouray"|"CO"|"38.1287179"|"-107.7743926"|"7979"|"Ridgway"|""|"13-OCT-1978"
"Billy Wood Spring"|"188591"|"Spring"|"Ouray"|"CO"|"38.1214704"|"-107.7689964"|"8212"|"Mount Sneffels"|""|"13-OCT-1978"
"Hout Spring"|"188592"|"Spring"|"Ouray"|"CO"|"38.1212741"|"-107.7660498"|"8241"|"Mount Sneffels"|""|"13-OCT-1978"
"Biebel Springs"|"189017"|"Spring"|"Gunnison"|"CO"|"38.5999921"|"-106.8344836"|"8445"|"Signal Peak"|""|"13-OCT-1978"
"Hortense Hot Spring"|"189464"|"Spring"|"Chaffee"|"CO"|"38.7327743"|"-106.1752967"|"8333"|"Mount Antero"|""|"13-OCT-1978"
"Barrel Spring"|"189629"|"Spring"|"Gunnison"|"CO"|"38.4516585"|"-106.7780932"|"8238"|"Iris"|""|"13-OCT-1978"
"Sage Hen Spring"|"189641"|"Spring"|"Saguache"|"CO"|"38.4148664"|"-106.7411195"|"8419"|"Houston Gulch"|""|"13-OCT-1978"
"Valdez Spring"|"189649"|"Spring"|"Gunnison"|"CO"|"38.4286039"|"-106.7308155"|"8471"|"Houston Gulch"|""|"13-OCT-1978"
"Prospector Spring"|"189653"|"Spring"|"Gunnison"|"CO"|"38.4754291"|"-106.7051868"|"8018"|"Houston Gulch"|""|"13-OCT-1978"
"Powertime Spring"|"189654"|"Spring"|"Gunnison"|"CO"|"38.4967364"|"-106.6724001"|"8461"|"Houston Gulch"|""|"13-OCT-1978"
"East Side Wood Gulch Spring"|"189658"|"Spring"|"Gunnison"|"CO"|"38.4763157"|"-106.6383760"|"8100"|"Houston Gulch"|""|"13-OCT-1978"
"Wicker Spring"|"189857"|"Spring"|"Chaffee"|"CO"|"38.4922196"|"-106.0047359"|"7933"|"Poncha Pass"|""|"13-OCT-1978"
"Poncha Hot Springs"|"189858"|"Spring"|"Chaffee"|"CO"|"38.4966642"|"-106.0777940"|"8012"|"Poncha Pass"|""|"13-OCT-1978"
"Garcia Spring"|"190081"|"Spring"|"Saguache"|"CO"|"38.1311305"|"-106.2052988"|"8274"|"Klondike Mine"|""|"13-OCT-1978"
"Cottonwood Spring"|"190082"|"Spring"|"Saguache"|"CO"|"38.1442814"|"-106.1676065"|"8261"|"Klondike Mine"|""|"13-OCT-1978"
"Cody Spring"|"190123"|"Spring"|"Saguache"|"CO"|"38.2313111"|"-106.0374513"|"8455"|"Graveyard Gulch"|""|"13-OCT-1978"
"Big Dry Gulch Spring"|"190202"|"Spring"|"Saguache"|"CO"|"38.1194058"|"-106.4124115"|"8448"|"Lake Mountain"|""|"13-OCT-1978"
"Houghland Hill Spring"|"190206"|"Spring"|"Saguache"|"CO"|"38.1149992"|"-106.3186401"|"8471"|"Laughlin Gulch"|""|"13-OCT-1978"
"Boland Spring"|"190213"|"Spring"|"Saguache"|"CO"|"38.1002855"|"-106.2793350"|"8392"|"Laughlin Gulch"|""|"13-OCT-1978"
"Onion Spring"|"190215"|"Spring"|"Saguache"|"CO"|"38.0415861"|"-106.1971172"|"8100"|"Saguache"|""|"13-OCT-1978"
"O'Neal Spring"|"190219"|"Spring"|"Saguache"|"CO"|"38.1124634"|"-106.1454931"|"7903"|"Saguache"|""|"13-OCT-1978"
"Higgins Spring"|"190227"|"Spring"|"Saguache"|"CO"|"38.1060052"|"-106.2461964"|"7963"|"Saguache"|""|"13-OCT-1978"
"Shaw Springs"|"190256"|"Spring"|"Saguache"|"CO"|"37.7502754"|"-106.3173914"|"7969"|"Twin Mountains SE"|""|"13-OCT-1978"
"Pescar Springs"|"191047"|"Spring"|"Archuleta"|"CO"|"37.0422323"|"-106.8797588"|"7802"|"Edith"|""|"13-OCT-1978"
"Taylor Soda Spring"|"191539"|"Spring"|"Fremont"|"CO"|"38.6019395"|"-105.5502748"|"8140"|"Hall Gulch"|""|"13-OCT-1978"
"Sheep Springs"|"191609"|"Spring"|"Fremont"|"CO"|"38.6591595"|"-105.3177665"|"8343"|"High Park"|""|"13-OCT-1978"
"Patton Spring"|"192500"|"Spring"|"Huerfano"|"CO"|"37.8980586"|"-105.3327802"|"8199"|"Devils Gulch"|""|"13-OCT-1978"
"Bailey Spring"|"192501"|"Spring"|"Huerfano"|"CO"|"37.8983364"|"-105.3277800"|"8268"|"Devils Gulch"|""|"13-OCT-1978"
"Cedar Spring"|"192502"|"Spring"|"Huerfano"|"CO"|"37.8955589"|"-105.3169464"|"8402"|"Devils Gulch"|""|"13-OCT-1978"
"Santana Spring"|"192601"|"Spring"|"Huerfano"|"CO"|"37.8477854"|"-105.0686054"|"8048"|"Badito Cone"|""|"13-OCT-1978"
"Mosca Spring"|"192627"|"Spring"|"Alamosa"|"CO"|"37.7338775"|"-105.5077729"|"8300"|"Zapata Ranch"|""|"13-OCT-1978"
"Denton Spring"|"192631"|"Spring"|"Alamosa"|"CO"|"37.6996944"|"-105.5242041"|"8359"|"Zapata Ranch"|""|"13-OCT-1978"
"Horse Spring"|"192694"|"Spring"|"Huerfano"|"CO"|"37.6308427"|"-105.0791643"|"8218"|"Farisita"|""|"13-OCT-1978"
"Sulphur Springs"|"192898"|"Spring"|"Huerfano"|"CO"|"37.4619557"|"-105.0986122"|"7956"|"Cuchara"|""|"13-OCT-1978"
"Emory Orr Spring"|"193010"|"Spring"|"Conejos"|"CO"|"37.1589112"|"-105.8096373"|"8117"|"Manassa NE"|""|"13-OCT-1978"
"McDonald Spring"|"194407"|"Spring"|"Huerfano"|"CO"|"37.4216802"|"-104.9911091"|"8379"|"Spanish Peaks"|""|"13-OCT-1978"
"Bell Spring"|"194860"|"Spring"|"Las Animas"|"CO"|"37.0897430"|"-104.4719302"|"8022"|"Fishers Peak"|""|"13-OCT-1978"
"Sager Spring"|"194870"|"Spring"|"Las Animas"|"CO"|"37.0297446"|"-104.4663755"|"7926"|"Fishers Peak"|""|"13-OCT-1978"
"Pearl Spring"|"194873"|"Spring"|"Las Animas"|"CO"|"37.0025231"|"-104.4419308"|"7963"|"Fishers Peak"|""|"13-OCT-1978"
"Pete Spring"|"194901"|"Spring"|"Las Animas"|"CO"|"37.0450220"|"-104.3280378"|"8018"|"Barela"|""|"13-OCT-1978"
"Dick Messer Spring"|"194916"|"Spring"|"Las Animas"|"CO"|"37.0400222"|"-104.3266489"|"8140"|"Barela"|""|"13-OCT-1978"
"Monique Spring"|"194917"|"Spring"|"Las Animas"|"CO"|"37.0303002"|"-104.3199822"|"8150"|"Barela"|""|"13-OCT-1978"
"Paula Spring"|"194920"|"Spring"|"Las Animas"|"CO"|"37.0250226"|"-104.3135933"|"8163"|"Barela"|""|"13-OCT-1978"
"Negro Spring"|"194921"|"Spring"|"Las Animas"|"CO"|"37.0228005"|"-104.3135933"|"8425"|"Barela"|""|"13-OCT-1978"
"Didero Spring"|"194922"|"Spring"|"Las Animas"|"CO"|"37.0214116"|"-104.3080376"|"8195"|"Barela"|""|"13-OCT-1978"
"Seavarda Springs"|"194926"|"Spring"|"Las Animas"|"CO"|"37.0169672"|"-104.2955373"|"8245"|"Barela"|""|"13-OCT-1978"
"Roberts Spring Number 2"|"194934"|"Spring"|"Las Animas"|"CO"|"37.0183561"|"-104.2727588"|"8228"|"Barela"|""|"13-OCT-1978"
"Roberts Spring Number 1"|"194935"|"Spring"|"Las Animas"|"CO"|"37.0233560"|"-104.2622029"|"8064"|"Barela"|""|"13-OCT-1978"
"Roberts Spring Number 3"|"194937"|"Spring"|"Las Animas"|"CO"|"37.0122452"|"-104.2794257"|"8291"|"Barela"|""|"13-OCT-1978"
"Spruce Spring"|"195275"|"Spring"|"Eagle"|"CO"|"39.5499387"|"-106.9848187"|"8051"|"Suicide Mountain"|""|"13-OCT-1978"
"Barrel Spring"|"196474"|"Spring"|"Saguache"|"CO"|"37.7686787"|"-106.3238838"|"8084"|"Twin Mountains SE"|"01-JAN-1981"|"01-DEC-1989"
"Sanderson Spring"|"196481"|"Spring"|"Rio Grande"|"CO"|"37.6436148"|"-106.4911509"|"8461"|"Indian Head"|"01-JAN-1981"|"01-JAN-1990"
"Jack Spring"|"196498"|"Spring"|"Garfield"|"CO"|"39.6999842"|"-107.1006050"|"7835"|"Dotsero"|"01-JAN-1925"|"01-JUL-1990"
"Black Snag Spring"|"196606"|"Spring"|"Dolores"|"CO"|"37.8124901"|"-108.6320408"|"7903"|"The Glade"|"01-JAN-1967"|"01-AUG-1990"
"Mud Spring"|"196624"|"Spring"|"Mesa"|"CO"|"39.3312660"|"-107.6753072"|"7933"|"Hightower Mountain"|""|"01-MAY-1991"
"Slaughter Spring"|"197206"|"Spring"|"Eagle"|"CO"|"39.5355394"|"-107.0128242"|"8445"|"Cottonwood Pass"|""|"01-DEC-1991"
"Fez Spring"|"197697"|"Spring"|"Eagle"|"CO"|"39.7385976"|"-106.6208674"|"8373"|"Edwards"|""|"01-SEP-1992"
"Piedra River Hot Springs"|"1735256"|"Spring"|"Archuleta"|"CO"|"37.3119472"|"-107.3553275"|"7798"|"Devil Mountain"|""|"14-MAY-1997"
"Mount Princeton Hot Springs"|"1794704"|"Spring"|"Chaffee"|"CO"|"38.7330521"|"-106.1625184"|"8159"|"Mount Antero"|""|"18-MAY-1998"
"Felix Spring"|"1947427"|"Spring"|"Archuleta"|"CO"|"37.0138989"|"-106.9536480"|"8346"|"Edith"|""|"10-JAN-2002"
"Paul Spring"|"1947439"|"Spring"|"Archuleta"|"CO"|"37.0194543"|"-106.9511480"|"8320"|"Edith"|""|"10-JAN-2002"
"Baby Creek Spring"|"371327"|"Spring"|"Custer"|"ID"|"44.1736228"|"-113.5880500"|"8350"|"Short Creek"|""|"21-JUN-1979"
"Boche Spring"|"376063"|"Spring"|"Lemhi"|"ID"|"44.7899246"|"-113.3014250"|"7949"|"Bannock Pass"|"01-JAN-1976"|"01-AUG-1990"
"Andrews Spring"|"376630"|"Spring"|"Lemhi"|"ID"|"44.9135362"|"-113.7950596"|"7956"|"Poison Peak"|""|"21-JUN-1979"
"Balsam Spring"|"376922"|"Spring"|"Bear Lake"|"ID"|"42.2769030"|"-111.5429394"|"8097"|"Midnight Mountain"|""|"21-JUN-1979"
"Bare Spring"|"376950"|"Spring"|"Lemhi"|"ID"|"45.5535596"|"-114.1317799"|"7828"|"Henderson Ridge"|""|"21-JUN-1979"
"Bear Wallow Spring"|"377209"|"Spring"|"Franklin"|"ID"|"42.3994019"|"-111.6093976"|"7838"|"North Canyon"|""|"21-JUN-1979"
"Bex Spring"|"377420"|"Spring"|"Teton"|"ID"|"43.7464860"|"-111.3763085"|"7959"|"Temple Peak"|""|"21-JUN-1979"
"Boatman Spring"|"377973"|"Spring"|"Clark"|"ID"|"44.5270702"|"-112.1726938"|"7835"|"Corral Creek"|""|"21-JUN-1979"
"Bull Spring"|"378481"|"Spring"|"Lemhi"|"ID"|"44.9007584"|"-113.7820033"|"8386"|"Poison Peak"|""|"21-JUN-1979"
"Bull Summit Waterhole"|"378483"|"Spring"|"Lemhi"|"ID"|"44.8963141"|"-113.7703362"|"7894"|"Poison Peak"|""|"21-JUN-1979"
"Chicken Spring"|"379268"|"Spring"|"Idaho"|"ID"|"45.2896210"|"-115.3955743"|"8340"|"Chicken Peak"|""|"21-JUN-1979"
"Cold Spring"|"379528"|"Spring"|"Bonneville"|"ID"|"43.6138043"|"-111.3343937"|"7802"|"Stouts Mountain"|""|"21-JUN-1979"
"Crystal Spring"|"380133"|"Spring"|"Valley"|"ID"|"45.1459806"|"-115.3920453"|"8258"|"Wolf Fang Peak"|""|"21-JUN-1979"
"Cub Basin Spring"|"380137"|"Spring"|"Franklin"|"ID"|"42.1072395"|"-111.6137392"|"8228"|"Egan Basin"|""|"21-JUN-1979"
"Cy Springs"|"380200"|"Spring"|"Valley"|"ID"|"44.4554362"|"-115.2750087"|"8264"|"Blue Bunch Mountain"|""|"21-JUN-1979"
"Dean Spring"|"380357"|"Spring"|"Custer"|"ID"|"44.1179743"|"-114.0444892"|"8077"|"Jerry Peak"|""|"21-JUN-1979"
"Douglas Spring"|"380739"|"Spring"|"Custer"|"ID"|"44.1683262"|"-114.0430044"|"7871"|"Horse Basin"|""|"21-JUN-1979"
"Dry Creek Spring Number 1"|"380835"|"Spring"|"Custer"|"ID"|"44.1667295"|"-113.5508097"|"7946"|"Short Creek"|""|"21-JUN-1979"
"Dry Creek Spring Number 2"|"380836"|"Spring"|"Custer"|"ID"|"44.1616719"|"-113.5539200"|"8140"|"Short Creek"|""|"21-JUN-1979"
"Elk Spring"|"381395"|"Spring"|"Idaho"|"ID"|"45.2245079"|"-115.3877068"|"8471"|"Wolf Fang Peak"|"01-JAN-1970"|"21-JUN-1979"
"Fox Spring"|"382006"|"Spring"|"Bear Lake"|"ID"|"42.3815949"|"-111.2285359"|"8333"|"Meade Peak"|""|"21-JUN-1979"
"Goodhart Spring"|"382429"|"Spring"|"Bear Lake"|"ID"|"42.5974120"|"-111.2457829"|"8245"|"Snowdrift Mountain"|""|"21-JUN-1979"
"Green Pass Spring"|"382649"|"Spring"|"Bear Lake"|"ID"|"42.2892823"|"-111.5845219"|"8491"|"Midnight Mountain"|""|"21-JUN-1979"
"Greyhound Pass Spring"|"382674"|"Spring"|"Caribou"|"ID"|"42.5259426"|"-111.2215777"|"8382"|"Snowdrift Mountain"|""|"21-JUN-1979"
"Hill Spring"|"383203"|"Spring"|"Caribou"|"ID"|"42.6397647"|"-111.1765445"|"7930"|"Stewart Flat"|""|"21-JUN-1979"
"Horse Basin Spring Number 2"|"383355"|"Spring"|"Custer"|"ID"|"44.2052412"|"-114.0609230"|"8081"|"Horse Basin"|""|"21-JUN-1979"
"Horsemint Spring"|"383412"|"Spring"|"Fremont"|"ID"|"44.5260845"|"-111.5293938"|"8317"|"Mount Jefferson"|"01-JAN-1988"|"31-DEC-1992"
"Huckleberry Spring"|"383506"|"Spring"|"Bear Lake"|"ID"|"42.2904852"|"-111.5412866"|"7851"|"Midnight Mountain"|""|"21-JUN-1979"
"Humberg Spring"|"383531"|"Spring"|"Bear Lake"|"ID"|"42.4086116"|"-111.6016851"|"8005"|"North Canyon"|""|"21-JUN-1979"
"Iron Spring"|"383767"|"Spring"|"Custer"|"ID"|"44.2351948"|"-113.5086214"|"7864"|"Short Creek"|""|"21-JUN-1979"
"Kitty Spring"|"384271"|"Spring"|"Clark"|"ID"|"44.2294834"|"-112.8049939"|"8005"|"Copper Mountain"|""|"21-JUN-1979"
"Log Spring"|"385970"|"Spring"|"Bear Lake"|"ID"|"42.3366200"|"-111.5611483"|"8218"|"Midnight Mountain"|""|"21-JUN-1979"
"Logger Spring"|"385977"|"Spring"|"Cassia"|"ID"|"42.1453089"|"-113.7317680"|"8117"|"Cache Peak"|""|"21-JUN-1979"
"Long Creek Spring"|"386042"|"Spring"|"Custer"|"ID"|"44.1749035"|"-113.5732176"|"8192"|"Short Creek"|""|"21-JUN-1979"
"Mandolin Spring"|"386422"|"Spring"|"Blaine"|"ID"|"43.6621790"|"-113.9768980"|"7917"|"Star Hope Mine"|""|"21-JUN-1979"
"Mink Creek Spring"|"387024"|"Spring"|"Franklin"|"ID"|"42.2983004"|"-111.5933184"|"8117"|"Midnight Mountain"|""|"21-JUN-1979"
"Mosquito Springs"|"387268"|"Spring"|"Idaho"|"ID"|"45.2641124"|"-115.3816040"|"8254"|"Chicken Peak"|""|"21-JUN-1979"
"Mule Spring"|"387389"|"Spring"|"Custer"|"ID"|"44.2338087"|"-113.8122526"|"8251"|"Borah Peak"|""|"21-JUN-1979"
"Opal Spring"|"387975"|"Spring"|"Custer"|"ID"|"44.4793685"|"-114.0217195"|"7831"|"Little Antelope Flat"|""|"21-JUN-1979"
"Packsaddle Spring"|"388111"|"Spring"|"Teton"|"ID"|"43.7231780"|"-111.3564446"|"8222"|"Garns Mountain"|""|"21-JUN-1979"
"Pecks Canyon Spring"|"388318"|"Spring"|"Custer"|"ID"|"44.1196409"|"-114.0344887"|"7838"|"Jerry Peak"|""|"21-JUN-1979"
"Pine Corral Spring"|"388476"|"Spring"|"Franklin"|"ID"|"42.2550690"|"-112.0797787"|"7867"|"Oxford"|""|"21-JUN-1979"
"Sheep Spring"|"390257"|"Spring"|"Idaho"|"ID"|"45.5879931"|"-115.0944820"|"7900"|"Sheep Hill"|""|"21-JUN-1979"
"Short Creek Spring Number 2"|"390364"|"Spring"|"Custer"|"ID"|"44.1868526"|"-113.6102027"|"7877"|"Short Creek"|""|"21-JUN-1979"
"Short Creek Spring Number 3"|"390365"|"Spring"|"Custer"|"ID"|"44.1735272"|"-113.6075178"|"8002"|"Short Creek"|""|"21-JUN-1979"
"Soapstone Spring"|"390797"|"Spring"|"Lemhi"|"ID"|"44.7593688"|"-113.3133691"|"8222"|"Bannock Pass"|""|"21-JUN-1979"
"Valieaux Spring"|"392674"|"Spring"|"Lemhi"|"ID"|"45.4592060"|"-114.3491021"|"7940"|"Shoup"|""|"21-JUN-1979"
"Wagonbox Spring"|"392767"|"Spring"|"Lemhi"|"ID"|"44.7963135"|"-113.2964249"|"8209"|"Bannock Pass"|""|"21-JUN-1979"
"Worm Creek Spring"|"393699"|"Spring"|"Bear Lake"|"ID"|"42.1522279"|"-111.5414808"|"8182"|"Paris Peak"|""|"21-JUN-1979"
"Mud Lick"|"393832"|"Spring"|"Lemhi"|"ID"|"45.1883183"|"-114.4456499"|"7992"|"Gant Ridge"|""|"31-DEC-1992"
"Lone Pine Spring"|"394131"|"Spring"|"Clark"|"ID"|"44.4043859"|"-112.3666794"|"8120"|"Paul Reservoir"|""|"01-DEC-1991"
"Edie Spring"|"394147"|"Spring"|"Clark"|"ID"|"44.4618614"|"-112.5293317"|"8077"|"Edie Creek"|""|"01-DEC-1991"
"Mountain Spring"|"397937"|"Spring"|"Custer"|"ID"|"43.7704581"|"-113.5922452"|"7969"|"Big Blind Canyon"|""|"21-JUN-1979"
"Hot Spring"|"398408"|"Spring"|"Boise"|"ID"|"44.8096204"|"-115.8192866"|"7828"|"Blackmare"|""|"31-DEC-1992"
"Trouble Spring"|"399329"|"Spring"|"Bear Lake"|"ID"|"42.5388762"|"-111.6250923"|"8189"|"Grace"|""|"01-FEB-1994"
"Bache Spring"|"399496"|"Spring"|"Lemhi"|"ID"|"44.7865913"|"-113.3111476"|"8245"|"Bannock Pass"|""|"01-FEB-1994"
"Crib Spring"|"399841"|"Spring"|"Lemhi"|"ID"|"45.1424049"|"-114.0360315"|"8090"|"Leesburg"|""|"21-JUN-1979"
"Muleshoe Springs"|"400009"|"Spring"|"Lemhi"|"ID"|"45.5435283"|"-114.2431390"|"8008"|"Henderson Ridge"|""|"21-JUN-1979"
"Commissary Spring"|"770051"|"Spring"|"Big Horn"|"MT"|"45.0491169"|"-107.9350095"|"8373"|"Bear Hole"|""|"04-APR-1980"
"Indian Springs"|"772701"|"Spring"|"Big Horn"|"MT"|"45.0449590"|"-107.9659404"|"7949"|"Bear Hole"|""|"04-APR-1980"
"Red Springs"|"775664"|"Spring"|"Big Horn"|"MT"|"45.0332951"|"-107.8370471"|"7874"|"Red Springs"|""|"04-APR-1980"
"Tepee Pole Spring"|"777473"|"Spring"|"Big Horn"|"MT"|"45.0108315"|"-107.8257830"|"8107"|"Red Springs"|""|"04-APR-1980"
"Anthill Spring"|"779080"|"Spring"|"Beaverhead"|"MT"|"44.6546435"|"-111.4921822"|"7844"|"Targhee Peak"|""|"04-APR-1980"
"Ayers Canyon Spring"|"779211"|"Spring"|"Beaverhead"|"MT"|"44.7810800"|"-113.0622293"|"8038"|"Medicine Lodge Peak"|""|"04-APR-1980"
"Bear Canyon Spring"|"779474"|"Spring"|"Beaverhead"|"MT"|"44.6727428"|"-112.9543039"|"7943"|"Graphite Mountain"|""|"04-APR-1980"
"Buffalo Spring"|"780554"|"Spring"|"Beaverhead"|"MT"|"44.5068553"|"-112.7002844"|"8317"|"Gallagher Gulch"|""|"04-APR-1980"
"Cabin Spring"|"780744"|"Spring"|"Beaverhead"|"MT"|"44.5811201"|"-112.7554823"|"7802"|"Caboose Canyon"|""|"04-APR-1980"
"Continental Spring"|"781597"|"Spring"|"Beaverhead"|"MT"|"44.5047105"|"-112.7618891"|"8363"|"Caboose Canyon"|""|"04-APR-1980"
"Dutch Hollow Spring"|"782731"|"Spring"|"Beaverhead"|"MT"|"44.5649470"|"-112.5539830"|"8123"|"Lima Peaks"|""|"04-APR-1980"
"East Fork Kate Creek Springs"|"782865"|"Spring"|"Beaverhead"|"MT"|"44.7725824"|"-112.9334937"|"7995"|"Deer Canyon"|""|"04-APR-1980"
"Gallagher Spring"|"783807"|"Spring"|"Beaverhead"|"MT"|"44.5826905"|"-112.7386210"|"7821"|"Gallagher Gulch"|""|"04-APR-1980"
"Graphite Spring"|"784196"|"Spring"|"Beaverhead"|"MT"|"44.7563582"|"-112.9257644"|"7913"|"Deer Canyon"|""|"04-APR-1980"
"Harper Spring"|"784559"|"Spring"|"Beaverhead"|"MT"|"44.6341070"|"-112.7357076"|"7848"|"Dell"|""|"04-APR-1980"
"Hewlett Spring"|"784809"|"Spring"|"Beaverhead"|"MT"|"44.6276590"|"-112.9063658"|"7854"|"Graphite Mountain"|""|"04-APR-1980"
"Larkspur Spring"|"785968"|"Spring"|"Silver Bow"|"MT"|"45.9185364"|"-112.9011487"|"8327"|"Dickie Peak"|""|"04-APR-1980"
"Lower Deep Creek Spring"|"786666"|"Spring"|"Beaverhead"|"MT"|"44.5302594"|"-112.5639236"|"8176"|"Lima Peaks"|""|"04-APR-1980"
"Mud Spring"|"787808"|"Spring"|"Beaverhead"|"MT"|"44.6210242"|"-112.7119543"|"8150"|"Gallagher Gulch"|""|"04-APR-1980"
"Pollywog Spring"|"789071"|"Spring"|"Ravalli"|"MT"|"46.0286188"|"-113.8136014"|"7874"|"Kent Peak"|""|"04-APR-1980"
"Seidensticker Number Two Spring"|"790206"|"Spring"|"Madison"|"MT"|"45.6988151"|"-112.4877919"|"8310"|"Table Mountain"|""|"04-APR-1980"
"Sourdough Spring"|"790869"|"Spring"|"Beaverhead"|"MT"|"44.7903240"|"-112.8888992"|"8478"|"Deer Canyon"|""|"04-APR-1980"
"Tony Island Spring"|"792269"|"Spring"|"Carbon"|"MT"|"45.1639863"|"-108.3808401"|"8205"|"Big Ice Cave"|""|"04-APR-1980"
"Tub Spring"|"792427"|"Spring"|"Silver Bow"|"MT"|"45.8354813"|"-112.8125327"|"8271"|"Dewey"|""|"04-APR-1980"
"Two Drink Springs"|"792549"|"Spring"|"Madison"|"MT"|"44.7229691"|"-111.6578121"|"7913"|"Elk Springs"|""|"04-APR-1980"
"Upper Rock Canyon Spring"|"792649"|"Spring"|"Beaverhead"|"MT"|"44.7878600"|"-112.9041965"|"7979"|"Deer Canyon"|""|"04-APR-1980"
"Williamson Spring"|"793334"|"Spring"|"Beaverhead"|"MT"|"44.6046056"|"-112.8622662"|"7864"|"Caboose Canyon"|""|"04-APR-1980"
"Road Spring"|"793721"|"Spring"|"Madison"|"MT"|"45.0635526"|"-111.8711137"|"8399"|"Broomtail Ridge"|""|"01-JAN-2000"
"Round Timber Spring"|"793886"|"Spring"|"Beaverhead"|"MT"|"44.5056254"|"-112.7326774"|"8218"|"Gallagher Gulch"|""|"04-APR-1980"
"Big Chief Spring"|"794122"|"Spring"|"Jefferson"|"MT"|"46.0640558"|"-112.0479085"|"7798"|"Wilson Park"|""|"01-DEC-1991"
"Seybold Spring"|"794870"|"Spring"|"Beaverhead"|"MT"|"44.7828769"|"-112.2157998"|"7920"|"Antone Peak"|""|"01-SEP-1992"
"Lone Willow Spring"|"801815"|"Spring"|"Madison"|"MT"|"44.7854712"|"-111.9410891"|"7877"|"Eureka Basin"|""|"01-JAN-2000"
"Cayuse Spring"|"806829"|"Spring"|"Beaverhead"|"MT"|"44.7310272"|"-111.8716421"|"7913"|"Lower Red Rock Lake"|""|"01-JAN-2000"
"13S02W05CAAA01 Spring"|"807201"|"Spring"|"Beaverhead"|"MT"|"44.7305718"|"-111.8711776"|"7900"|"Lower Red Rock Lake"|""|"01-AUG-1995"
"Black Water Spring"|"886461"|"Spring"|"McKinley"|"NM"|"35.9236836"|"-108.7591530"|"7989"|"Chuska Peak"|""|"13-NOV-1980"
"Cebollita Spring"|"887311"|"Spring"|"Sandoval"|"NM"|"35.8320236"|"-106.7233676"|"8113"|"Jemez Springs"|""|"13-NOV-1980"
"Diablo Spring"|"888362"|"Spring"|"Cibola"|"NM"|"35.2929495"|"-107.3643613"|"7858"|"Marquez"|""|"13-NOV-1980"
"Lucero Spring"|"891470"|"Spring"|"Colfax"|"NM"|"36.3109246"|"-105.0499213"|"8441"|"White Peak"|""|"13-NOV-1980"
"Luka Spring"|"891489"|"Spring"|"McKinley"|"NM"|"35.9136244"|"-108.8173102"|"8215"|"Chuska Peak"|""|"13-NOV-1980"
"Major Spring"|"891549"|"Spring"|"Cibola"|"NM"|"34.7155663"|"-107.7601260"|"7848"|"Cebollita Peak"|""|"13-NOV-1980"
"Mormon Spring"|"892235"|"Spring"|"San Juan"|"NM"|"36.1260354"|"-108.8661534"|"7995"|"Two Grey Hills"|""|"13-NOV-1980"
"Old Sawmill Spring"|"892897"|"Spring"|"San Juan"|"NM"|"36.3314834"|"-108.9597056"|"7841"|"Old Pine Spring"|""|"13-NOV-1980"
"Padilla Spring"|"893009"|"Spring"|"Lincoln"|"NM"|"33.5919774"|"-105.4150107"|"8077"|"Capitan Pass"|""|"13-NOV-1980"
"Rock House Spring"|"894048"|"Spring"|"Doa Ana"|"NM"|"32.3350930"|"-106.5491617"|"7861"|"Organ Peak"|""|"13-NOV-1980"
"Ross Spring"|"894169"|"Spring"|"Colfax"|"NM"|"36.9264234"|"-104.2283612"|"8061"|"Dale Mountain"|""|"13-NOV-1980"
"Squirrel Springs"|"895288"|"Spring"|"McKinley"|"NM"|"35.9091796"|"-108.8945388"|"7841"|"Todilto Park"|""|"13-NOV-1980"
"Techado Spring"|"895556"|"Spring"|"Cibola"|"NM"|"34.5908708"|"-107.7736289"|"7940"|"Wild Horse Canyon"|""|"13-NOV-1980"
"Vicenti Spring"|"896132"|"Spring"|"San Juan"|"NM"|"36.1248306"|"-108.9879988"|"7848"|"Crystal"|""|"13-NOV-1980"
"White Clay Spring"|"896486"|"Spring"|"McKinley"|"NM"|"35.7995527"|"-108.9822458"|"7943"|"Crevasse Canyon"|""|"13-NOV-1980"
"Nikehoshi Spring"|"897542"|"Spring"|"McKinley"|"NM"|"35.9250134"|"-108.7673087"|"8350"|"Chuska Peak"|"01-JAN-1915"|"01-APR-1991"
"Ojo los Rechuelos"|"898092"|"Spring"|"McKinley"|"NM"|"35.3680227"|"-107.3114423"|"8054"|"Marquez"|""|"13-NOV-1980"
"Ojo Estaliando"|"898094"|"Spring"|"McKinley"|"NM"|"35.3330555"|"-107.3428621"|"8156"|"Marquez"|""|"13-NOV-1980"
"Canovas Spring"|"898503"|"Spring"|"Catron"|"NM"|"34.0143606"|"-108.9999389"|"8120"|"Jones Canyon"|"01-JAN-1978"|"01-APR-1991"
"Knight Spring"|"898867"|"Spring"|"Catron"|"NM"|"34.0077960"|"-108.9019450"|"7844"|"Jones Canyon"|""|"01-DEC-1991"
"Aspen Spring"|"898908"|"Spring"|"Grant"|"NM"|"32.9723964"|"-107.8878775"|"7854"|"Hendricks Peak"|""|"01-DEC-1991"
"Chavez SPring"|"899315"|"Spring"|"Rio Arriba"|"NM"|"36.2127615"|"-106.8408082"|"8100"|"Gallina"|""|"01-DEC-1991"
"Cecilia Spring"|"899316"|"Spring"|"Rio Arriba"|"NM"|"36.1905674"|"-106.7955576"|"8163"|"Gallina"|""|"01-DEC-1991"
"Los Utes Spring"|"899334"|"Spring"|"Los Alamos"|"NM"|"35.7814145"|"-106.4083633"|"7854"|"Bland"|""|"01-DEC-1991"
"McFate Spring"|"899346"|"Spring"|"Catron"|"NM"|"33.8772527"|"-109.0158774"|"8120"|"Escudilla Mountain"|""|"01-FEB-1992"
"Bubbling Springs"|"900310"|"Spring"|"Colfax"|"NM"|"36.8760066"|"-105.0948988"|"8117"|"Vermejo Park"|""|"01-NOV-1992"
"Cold Water Spring"|"900318"|"Spring"|"McKinley"|"NM"|"35.9232783"|"-108.8280370"|"8159"|"Chuska Peak"|""|"01-NOV-1992"
"Manuelito Spring"|"900319"|"Spring"|"McKinley"|"NM"|"35.9102591"|"-108.8096872"|"7995"|"Chuska Peak"|""|"01-NOV-1992"
"Oak Spring"|"900321"|"Spring"|"McKinley"|"NM"|"35.9670612"|"-108.7762657"|"8248"|"Chuska Peak"|""|"01-NOV-1992"
"Dadasoa Spring"|"900323"|"Spring"|"McKinley"|"NM"|"35.9508563"|"-108.7638696"|"8048"|"Chuska Peak"|""|"01-NOV-1992"
"Mustang Spring"|"900444"|"Spring"|"Otero"|"NM"|"33.2911915"|"-105.8933233"|"8222"|"Golondrina Draw"|""|"01-NOV-1992"
"Toothache Spring"|"900565"|"Spring"|"Colfax"|"NM"|"36.4005916"|"-104.9927812"|"7936"|"Coyote Mesa"|""|"01-NOV-1992"
"Backache Spring"|"900568"|"Spring"|"Colfax"|"NM"|"36.3955916"|"-104.9750027"|"7825"|"Coyote Mesa"|""|"01-NOV-1992"
"Mud Spring"|"900580"|"Spring"|"Otero"|"NM"|"33.2781992"|"-105.7573183"|"7880"|"Sierra Blanca Peak"|""|"01-NOV-1992"
"Holyan Spring"|"900611"|"Spring"|"McKinley"|"NM"|"35.9336722"|"-108.7623679"|"8045"|"Chuska Peak"|""|"01-NOV-1992"
"Poision Ivy Spring"|"900612"|"Spring"|"McKinley"|"NM"|"35.9323701"|"-108.7621527"|"8028"|"Chuska Peak"|""|"01-NOV-1992"
"Ojo Escondida"|"901417"|"Spring"|"Rio Arriba"|"NM"|"0.0000000"|"0.0000000"|"8067"|"Unknown"|""|"01-DEC-1992"
"Tequesquite Springs"|"901588"|"Spring"|"Rio Arriba"|"NM"|"0.0000000"|"0.0000000"|"8067"|"Unknown"|""|"01-DEC-1992"
"Caballeriza"|"902571"|"Spring"|"Catron"|"NM"|"34.0361639"|"-108.3478386"|"8199"|"Mangas Mountain"|""|"01-JAN-1993"
"Kidney and Stomach Trouble Spring"|"902598"|"Spring"|"Sandoval"|"NM"|"35.9086328"|"-106.6161464"|"8199"|"Valle San Antonio"|""|"01-JAN-1993"
"Boy Scout Camp Spring"|"902608"|"Spring"|"Otero"|"NM"|"0.0000000"|"0.0000000"|"8179"|"Unknown"|""|"01-JAN-1993"
"Ladies Bath House"|"902610"|"Spring"|"Sandoval"|"NM"|"35.9064106"|"-106.6161463"|"8274"|"Valle San Antonio"|""|"01-JAN-1993"
"Mens Bath House"|"902616"|"Spring"|"Sandoval"|"NM"|"35.9066884"|"-106.6158685"|"8258"|"Valle San Antonio"|""|"01-JAN-1993"
"San Antonio Warm Spring"|"902625"|"Spring"|"Sandoval"|"NM"|"35.9714851"|"-106.5610837"|"8441"|"Valle San Antonio"|""|"01-JAN-1993"
"B Knight"|"902775"|"Spring"|"Catron"|"NM"|"34.0050518"|"-108.9020174"|"7851"|"Jones Canyon"|""|"01-JAN-1993"
"Cottonwood Spring"|"902807"|"Spring"|"San Juan"|"NM"|"36.1039392"|"-108.8426713"|"7920"|"Narbona Pass"|""|"13-NOV-1980"
"Oak Spring"|"902836"|"Spring"|"San Juan"|"NM"|"36.1150087"|"-108.8473125"|"7923"|"Narbona Pass"|""|"13-NOV-1980"
"Owl Spring"|"902838"|"Spring"|"San Juan"|"NM"|"36.0972313"|"-108.8467567"|"8143"|"Narbona Pass"|""|"13-NOV-1980"
"Aragon Spring"|"903258"|"Spring"|"Cibola"|"NM"|"35.0344772"|"-108.1417312"|"7956"|"Valle Largo"|""|"13-NOV-1980"
"Armstead Spring"|"903276"|"Spring"|"Los Alamos"|"NM"|"35.8441911"|"-106.3869742"|"8248"|"Bland"|""|"13-NOV-1980"
"Bales Seep"|"903523"|"Spring"|"Sandoval"|"NM"|"35.8207135"|"-106.8311125"|"8002"|"San Miguel Mountain"|""|"13-NOV-1980"
"Bear Spring"|"903667"|"Spring"|"Otero"|"NM"|"32.8264789"|"-105.6575533"|"7959"|"Bluff Springs"|""|"13-NOV-1980"
"Bear Spring"|"903670"|"Spring"|"Cibola"|"NM"|"35.2903099"|"-108.4278488"|"7969"|"Page"|""|"13-NOV-1980"
"Bear Wallow Spring"|"903689"|"Spring"|"Otero"|"NM"|"32.6672822"|"-105.6496382"|"7812"|"Graveyard Canyon"|""|"13-NOV-1980"
"Behringer Spring"|"903722"|"Spring"|"Otero"|"NM"|"32.8107598"|"-105.6269729"|"7959"|"Bluff Springs"|""|"13-NOV-1980"
"Benson Spring"|"903753"|"Spring"|"Otero"|"NM"|"32.8461157"|"-105.7229937"|"8297"|"Bluff Springs"|""|"13-NOV-1980"
"Big Spring"|"903813"|"Spring"|"Cibola"|"NM"|"35.1954055"|"-107.6694368"|"8392"|"Lobo Springs"|""|"13-NOV-1980"
"Blue Spring"|"903954"|"Spring"|"Catron"|"NM"|"34.2777116"|"-107.8466914"|"8038"|"Cal Ship Mesa"|""|"13-NOV-1980"
"Bluff Springs"|"903970"|"Spring"|"Otero"|"NM"|"32.8298155"|"-105.7385916"|"8182"|"Bluff Springs"|""|"13-NOV-1980"
"Burnt Cabin Cienega Spring"|"904213"|"Spring"|"Catron"|"NM"|"33.4647844"|"-108.5739479"|"8369"|"Negrito Mountain"|""|"13-NOV-1980"
"CCC Spring"|"904271"|"Spring"|"McKinley"|"NM"|"35.3721996"|"-107.5578488"|"7858"|"Cerro Pelon"|""|"13-NOV-1980"
"Chambers Spring"|"905017"|"Spring"|"Taos"|"NM"|"36.6933615"|"-105.4988944"|"8041"|"Red River"|""|"13-NOV-1980"
"Chavez Spring"|"905059"|"Spring"|"Catron"|"NM"|"34.2575361"|"-107.8071930"|"8015"|"Cal Ship Mesa"|""|"13-NOV-1980"
"Cholejo Spring"|"905124"|"Spring"|"Rio Arriba"|"NM"|"36.4337971"|"-106.2788729"|"8156"|"Mogote Peak"|""|"13-NOV-1980"
"Cienega Spring"|"905156"|"Spring"|"Otero"|"NM"|"33.0255963"|"-105.6425298"|"7838"|"Firman Canyon"|""|"13-NOV-1980"
"Cold Springs"|"905246"|"Spring"|"Cibola"|"NM"|"35.0953148"|"-108.1303415"|"7985"|"Valle Largo"|""|"13-NOV-1980"
"Cordovas Spring"|"905341"|"Spring"|"Rio Arriba"|"NM"|"36.1559342"|"-106.7351259"|"7992"|"Arroyo Del Agua"|""|"13-NOV-1980"
"Cotton Spring"|"905394"|"Spring"|"Otero"|"NM"|"32.9207349"|"-105.6180283"|"7871"|"Bell Canyon"|""|"13-NOV-1980"
"Cridebring Spring"|"905504"|"Spring"|"Otero"|"NM"|"32.7846344"|"-105.6383453"|"7798"|"Bluff Springs"|""|"13-NOV-1980"
"Crosby Springs"|"905521"|"Spring"|"Catron"|"NM"|"34.1483909"|"-107.9381106"|"8061"|"Crosby Springs"|""|"13-NOV-1980"
"Davenport Spring"|"905613"|"Spring"|"Catron"|"NM"|"34.2807138"|"-107.9235564"|"8353"|"Madre Mountain"|""|"13-NOV-1980"
"De Armand Spring"|"905627"|"Spring"|"Cibola"|"NM"|"35.1812152"|"-107.5708633"|"8195"|"Mount Taylor"|""|"13-NOV-1980"
"Dog Spring"|"905802"|"Spring"|"Catron"|"NM"|"33.2640579"|"-108.7301535"|"7848"|"Grouse Mountain"|""|"13-NOV-1980"
"Double Barrel Spring"|"905828"|"Spring"|"Catron"|"NM"|"33.5231177"|"-108.3961679"|"8113"|"Pitchfork Canyon"|""|"13-NOV-1980"
"Eckleberger Spring"|"906013"|"Spring"|"Catron"|"NM"|"33.5758932"|"-108.5042255"|"8172"|"Telephone Canyon"|""|"13-NOV-1980"
"El Rito Spring"|"906097"|"Spring"|"Cibola"|"NM"|"35.2855246"|"-107.6889822"|"7992"|"San Mateo"|""|"13-NOV-1980"
"Fite Spring"|"906286"|"Spring"|"Otero"|"NM"|"32.9008358"|"-105.6936025"|"8254"|"Cloudcroft"|""|"13-NOV-1980"
"Five Spring"|"906289"|"Spring"|"Otero"|"NM"|"33.0885534"|"-105.7357699"|"7798"|"Firman Canyon"|""|"13-NOV-1980"
"Fuertes Spring"|"906425"|"Spring"|"Rio Arriba"|"NM"|"36.2404581"|"-106.6799184"|"8300"|"Arroyo Del Agua"|""|"13-NOV-1980"
"Gallegos Spring"|"906444"|"Spring"|"Rio Arriba"|"NM"|"36.3490980"|"-106.7436693"|"7992"|"Laguna Peak"|""|"13-NOV-1980"
"Geronimo Spring"|"906526"|"Spring"|"Sierra"|"NM"|"33.0834046"|"-107.7717019"|"8008"|"Victorio Park"|""|"13-NOV-1980"
"Hay Canyon Spring"|"906881"|"Spring"|"Otero"|"NM"|"32.8128403"|"-105.6381630"|"7979"|"Bluff Springs"|""|"13-NOV-1980"
"Hidden Spring"|"906957"|"Spring"|"Catron"|"NM"|"34.1603008"|"-107.9714704"|"8136"|"Crosby Springs"|""|"13-NOV-1980"
"Kid Spring"|"906958"|"Spring"|"Catron"|"NM"|"34.2772801"|"-107.8231079"|"8110"|"Cal Ship Mesa"|"01-JAN-1982"|"13-NOV-1980"
"Horse Spring"|"907107"|"Spring"|"Otero"|"NM"|"33.0416190"|"-105.7178892"|"8035"|"Firman Canyon"|""|"13-NOV-1980"
"Horseshoe Spring"|"907117"|"Spring"|"Sandoval"|"NM"|"35.9930849"|"-106.8752664"|"7864"|"San Pablo"|""|"13-NOV-1980"
"Hyatt Spring"|"907175"|"Spring"|"Otero"|"NM"|"32.9285424"|"-105.6248515"|"7969"|"Bell Canyon"|"01-JAN-1976"|"13-NOV-1980"
"Jeffers Spring"|"907341"|"Spring"|"Otero"|"NM"|"32.7327133"|"-105.6134538"|"7985"|"Bear Spring"|""|"13-NOV-1980"
"Jim Lewis Spring"|"907371"|"Spring"|"Otero"|"NM"|"32.6961504"|"-105.6316292"|"8094"|"Graveyard Canyon"|""|"13-NOV-1980"
"Johnson Spring"|"907413"|"Spring"|"Otero"|"NM"|"32.9307502"|"-105.6521148"|"8067"|"Cloudcroft"|"01-JAN-1976"|"13-NOV-1980"
"Jose Ignacio Spring"|"907446"|"Spring"|"Cibola"|"NM"|"35.0478766"|"-107.9578739"|"7861"|"San Rafael"|""|"13-NOV-1980"
"Karruth Spring"|"907505"|"Spring"|"Catron"|"NM"|"33.9740251"|"-108.9618346"|"8064"|"Underwood Lake"|""|"13-NOV-1980"
"Koprian Spring"|"907587"|"Spring"|"Lincoln"|"NM"|"33.6261925"|"-105.4388717"|"7812"|"Encinoso"|""|"13-NOV-1980"
"Lagunita Spring"|"907814"|"Spring"|"Sandoval"|"NM"|"35.2022655"|"-106.4061351"|"8487"|"Sandia Crest"|""|"13-NOV-1980"
"Laney Spring"|"907842"|"Spring"|"Catron"|"NM"|"33.7645405"|"-108.8990273"|"8202"|"Luna"|""|"13-NOV-1980"
"Little Bear Spring"|"907989"|"Spring"|"Otero"|"NM"|"32.7900694"|"-105.6347845"|"8077"|"Bluff Springs"|""|"13-NOV-1980"
"Little Bear Spring"|"907991"|"Spring"|"McKinley"|"NM"|"35.3754999"|"-108.6015470"|"7884"|"Fort Wingate"|""|"13-NOV-1980"
"Little Hay Spring"|"908021"|"Spring"|"Otero"|"NM"|"32.9283769"|"-105.6315187"|"7910"|"Cloudcroft"|""|"13-NOV-1980"
"Little Turkey Spring"|"908059"|"Spring"|"Catron"|"NM"|"33.4850635"|"-108.3114436"|"8202"|"Canyon Creek Mountains"|"01-JAN-1979"|"13-NOV-1980"
"Little Turkey Spring"|"908060"|"Spring"|"Cibola"|"NM"|"35.2161731"|"-107.6950608"|"7848"|"Lobo Springs"|""|"13-NOV-1980"
"Los Indios Spring"|"908215"|"Spring"|"Rio Arriba"|"NM"|"36.2982816"|"-106.7245536"|"8435"|"Laguna Peak"|""|"13-NOV-1980"
"Lost Spring"|"908254"|"Spring"|"Lincoln"|"NM"|"33.6843717"|"-105.7150430"|"8484"|"White Oaks South"|""|"13-NOV-1980"
"Lost Spring"|"908255"|"Spring"|"Rio Arriba"|"NM"|"36.4646057"|"-106.7767947"|"8412"|"Llaves"|""|"13-NOV-1980"
"Malpais Spring"|"908379"|"Spring"|"Catron"|"NM"|"33.9680852"|"-108.5854519"|"8015"|"Aragon"|""|"13-NOV-1980"
"Marrs Spring"|"908421"|"Spring"|"Catron"|"NM"|"33.3253427"|"-108.4689439"|"7923"|"Lilley Mountain"|""|"13-NOV-1980"
"Maruca Spring"|"908446"|"Spring"|"McKinley"|"NM"|"35.3443527"|"-107.6131648"|"7841"|"Cerro Pelon"|""|"13-NOV-1980"
"Maverick Spring"|"908480"|"Spring"|"Catron"|"NM"|"34.3035227"|"-107.8119794"|"8277"|"Cal Ship Mesa"|""|"13-NOV-1980"
"Monument Spring"|"908879"|"Spring"|"Otero"|"NM"|"32.6781537"|"-105.6572005"|"8189"|"Graveyard Canyon"|""|"13-NOV-1980"
"New Lava Spring"|"909058"|"Spring"|"Socorro"|"NM"|"33.7805103"|"-107.4701605"|"8382"|"Grassy Lookout"|""|"13-NOV-1980"
"North Spring"|"909190"|"Spring"|"McKinley"|"NM"|"35.4164881"|"-107.3641335"|"8494"|"Laguna Seca"|""|"13-NOV-1980"
"Ojito de las Cienaguitas"|"909259"|"Spring"|"Rio Arriba"|"NM"|"36.3695195"|"-106.2909910"|"8373"|"Canjilon SE"|""|"13-NOV-1980"
"Ojito del Comanche"|"909261"|"Spring"|"Rio Arriba"|"NM"|"36.3641193"|"-106.3166367"|"8146"|"Canjilon SE"|""|"13-NOV-1980"
"Ojito Escondido"|"909269"|"Spring"|"San Miguel"|"NM"|"35.6214244"|"-105.6475161"|"8186"|"Pecos"|""|"13-NOV-1980"
"Ojitos"|"909286"|"Spring"|"Cibola"|"NM"|"35.1339897"|"-108.1697275"|"8127"|"Post Office Flat"|""|"13-NOV-1980"
"Ojo del Dado"|"909295"|"Spring"|"McKinley"|"NM"|"35.4479322"|"-107.4413082"|"8241"|"El Dado Mesa"|""|"13-NOV-1980"
"Ojo del Indio"|"909298"|"Spring"|"Torrance"|"NM"|"34.7108611"|"-106.4018792"|"8478"|"Capilla Peak"|""|"13-NOV-1980"
"Ojo Eugenio"|"909315"|"Spring"|"McKinley"|"NM"|"35.3890915"|"-107.3282939"|"8228"|"Laguna Seca"|""|"13-NOV-1980"
"Ojo la Jara"|"909322"|"Spring"|"Rio Arriba"|"NM"|"36.2670705"|"-106.7758954"|"8150"|"French Mesa"|""|"13-NOV-1980"
"Ojo Sarco"|"909328"|"Spring"|"San Miguel"|"NM"|"35.6061474"|"-105.6183491"|"7884"|"Lower Colonias"|""|"13-NOV-1980"
"Perry Canyon Spring"|"909575"|"Spring"|"Catron"|"NM"|"34.0464409"|"-108.7264568"|"8110"|"Gallo Mountains West"|""|"13-NOV-1980"
"Potrero Three Spring"|"909821"|"Spring"|"Rio Arriba"|"NM"|"36.2635065"|"-106.6325595"|"8074"|"Laguna Peak"|""|"13-NOV-1980"
"Presa Spring"|"909845"|"Spring"|"Rio Arriba"|"NM"|"36.3136726"|"-106.7299389"|"8163"|"Laguna Peak"|""|"13-NOV-1980"
"Raton Spring"|"910019"|"Spring"|"Cibola"|"NM"|"35.1625149"|"-107.6140381"|"7841"|"Mount Taylor"|""|"13-NOV-1980"
"Rene Spring"|"910124"|"Spring"|"Catron"|"NM"|"34.1672422"|"-107.9454398"|"8117"|"Crosby Springs"|""|"13-NOV-1980"
"Revis Spring"|"910149"|"Spring"|"Cibola"|"NM"|"35.2480965"|"-107.7056991"|"7995"|"Lobo Springs"|""|"13-NOV-1980"
"Rito la Cueva Spring"|"910283"|"Spring"|"Sandoval"|"NM"|"35.8175269"|"-106.8301874"|"7999"|"San Miguel Mountain"|""|"13-NOV-1980"
"Road Spring"|"910336"|"Spring"|"Catron"|"NM"|"34.1900136"|"-107.9639653"|"7897"|"Crosby Springs"|""|"13-NOV-1980"
"Rock Spring"|"910378"|"Spring"|"Catron"|"NM"|"33.9784040"|"-108.5893483"|"7858"|"Aragon"|""|"13-NOV-1980"
"San Antonio Hot Spring"|"910605"|"Spring"|"Sandoval"|"NM"|"35.9380969"|"-106.6459242"|"8363"|"Seven Springs"|""|"13-NOV-1980"
"San Jose Spring"|"910641"|"Spring"|"Sandoval"|"NM"|"36.1787327"|"-106.9019533"|"8474"|"Regina"|""|"13-NOV-1980"
"San Lucas Spring"|"910656"|"Spring"|"McKinley"|"NM"|"35.3457956"|"-107.6052023"|"7851"|"Cerro Pelon"|""|"13-NOV-1980"
"Sawmill Spring"|"910852"|"Spring"|"Rio Arriba"|"NM"|"36.6126377"|"-106.0359019"|"8441"|"Las Tablas"|""|"13-NOV-1980"
"Seco Spring"|"910903"|"Spring"|"Cibola"|"NM"|"35.1745213"|"-107.5732433"|"7992"|"Mount Taylor"|""|"13-NOV-1980"
"Sheep Spring"|"910993"|"Spring"|"Catron"|"NM"|"33.4217295"|"-108.5745029"|"8271"|"Negrito Mountain"|""|"13-NOV-1980"
"Shuster Spring"|"911030"|"Spring"|"McKinley"|"NM"|"35.3800277"|"-108.5078506"|"7844"|"Fort Wingate"|""|"13-NOV-1980"
"Silver Spring"|"911076"|"Spring"|"Otero"|"NM"|"32.9827241"|"-105.6999368"|"8441"|"Cloudcroft"|""|"13-NOV-1980"
"Sixmile Spring"|"911105"|"Spring"|"Socorro"|"NM"|"33.9739536"|"-107.1467011"|"8478"|"South Baldy"|""|"13-NOV-1980"
"Skeleton Spring"|"911115"|"Spring"|"Catron"|"NM"|"34.2962379"|"-107.8630253"|"8438"|"Cal Ship Mesa"|""|"13-NOV-1980"
"Slaughter Spring"|"911131"|"Spring"|"Catron"|"NM"|"34.2242239"|"-107.9481120"|"8015"|"Crosby Springs"|""|"13-NOV-1980"
"Slough Spring"|"911144"|"Spring"|"Otero"|"NM"|"32.9652367"|"-105.6326331"|"7953"|"Cloudcroft"|""|"13-NOV-1980"
"Sugarloaf Spring"|"911465"|"Spring"|"Catron"|"NM"|"34.1299097"|"-107.9868278"|"8081"|"Crosby Springs"|""|"13-NOV-1980"
"Tampico Spring"|"911536"|"Spring"|"McKinley"|"NM"|"35.3478050"|"-108.5117416"|"7831"|"Upper Nutria"|""|"13-NOV-1980"
"Telephone Spring"|"911596"|"Spring"|"Cibola"|"NM"|"35.2432813"|"-107.6928598"|"7828"|"Lobo Springs"|""|"13-NOV-1980"
"Thompson Spring"|"911668"|"Spring"|"Catron"|"NM"|"34.2100559"|"-107.8994031"|"7812"|"Crosby Springs"|""|"13-NOV-1980"
"Todd Browning Spring"|"911728"|"Spring"|"Catron"|"NM"|"33.9867676"|"-108.8368132"|"7831"|"Centerfire Bog"|""|"13-NOV-1980"
"Tree Spring"|"911800"|"Spring"|"Bernalillo"|"NM"|"35.1928214"|"-106.4025239"|"8333"|"Sandia Crest"|""|"13-NOV-1980"
"Turkey Park Spring"|"911882"|"Spring"|"Catron"|"NM"|"34.1441932"|"-107.9769988"|"8136"|"Crosby Springs"|""|"13-NOV-1980"
"Turkey Pen Spring"|"911886"|"Spring"|"Otero"|"NM"|"33.0105936"|"-105.7001473"|"8392"|"Firman Canyon"|""|"13-NOV-1980"
"Turkey Spring"|"911896"|"Spring"|"Catron"|"NM"|"33.5940472"|"-108.4859635"|"7956"|"Pitchfork Canyon"|""|"13-NOV-1980"
"Turkeyfeather Spring"|"911912"|"Spring"|"Catron"|"NM"|"33.3372865"|"-108.5286674"|"7936"|"Mogollon Baldy Peak"|""|"13-NOV-1980"
"Twin Doe Spring"|"911927"|"Spring"|"Catron"|"NM"|"33.9833538"|"-108.9648809"|"8441"|"Underwood Lake"|""|"13-NOV-1980"
"Twin Springs"|"911938"|"Spring"|"Cibola"|"NM"|"35.2622988"|"-108.3638238"|"8104"|"Cottonwood Canyon"|""|"13-NOV-1980"
"Warm Spring"|"912160"|"Spring"|"Taos"|"NM"|"36.2500240"|"-105.7275149"|"8186"|"Penasco"|""|"13-NOV-1980"
"Warm Springs"|"912161"|"Spring"|"Taos"|"NM"|"36.2500240"|"-105.7311262"|"8081"|"Taos SW"|""|"13-NOV-1980"
"White House Spring"|"912302"|"Spring"|"Catron"|"NM"|"34.2492973"|"-107.9396267"|"7930"|"Crosby Springs"|""|"13-NOV-1980"
"Wood Spring"|"912484"|"Spring"|"Catron"|"NM"|"34.3025568"|"-107.9061665"|"8412"|"Madre Mountain"|""|"13-NOV-1980"
"Skull Spring"|"912613"|"Spring"|"Lincoln"|"NM"|"33.4849242"|"-105.7924302"|"8146"|"Nogal Peak"|"01-JAN-1983"|"31-AUG-1992"
"McMillan Spring"|"912674"|"Spring"|"Grant"|"NM"|"32.9228503"|"-108.1878243"|"8081"|"Twin Sisters"|""|"01-DEC-1991"
"Holt Spring"|"912708"|"Spring"|"Catron"|"NM"|"33.2950636"|"-108.7872829"|"8392"|"Holt Mountain"|""|"01-DEC-1991"
"Quentin Spring"|"912829"|"Spring"|"Catron"|"NM"|"33.3225648"|"-108.4794996"|"8015"|"Lilley Mountain"|""|"01-DEC-1991"
"Seven Spring"|"912908"|"Spring"|"Otero"|"NM"|"33.0249929"|"-105.7687768"|"8353"|"Domingo Peak"|""|"01-DEC-1991"
"Apache Spring"|"912909"|"Spring"|"Otero"|"NM"|"33.0048121"|"-105.7722098"|"8077"|"Domingo Peak"|""|"01-DEC-1991"
"Dripping Spring"|"912922"|"Spring"|"Otero"|"NM"|"33.1053650"|"-105.7519316"|"8133"|"Domingo Peak"|""|"01-DEC-1991"
"Peppin Spring"|"912938"|"Spring"|"Lincoln"|"NM"|"33.5971052"|"-105.4294601"|"7999"|"Capitan Pass"|""|"01-DEC-1991"
"Logger Spring"|"912972"|"Spring"|"Catron"|"NM"|"33.5128390"|"-108.5778375"|"7917"|"Telephone Canyon"|""|"01-DEC-1991"
"Oak Spring"|"912987"|"Spring"|"Catron"|"NM"|"33.5206160"|"-108.6531165"|"7815"|"Sign Camp Mountain"|""|"01-DEC-1991"
"Alire Spring"|"913040"|"Spring"|"Rio Arriba"|"NM"|"36.5555048"|"-106.0805005"|"8481"|"Las Tablas"|""|"01-DEC-1991"
"Poso Spring"|"913041"|"Spring"|"Rio Arriba"|"NM"|"36.5511583"|"-106.0766659"|"8468"|"Las Tablas"|""|"01-DEC-1991"
"Diablo Spring"|"913103"|"Spring"|"Torrance"|"NM"|"34.7520271"|"-106.3999748"|"7858"|"Bosque Peak"|""|"01-DEC-1991"
"Ojito Los Burros Spring"|"913105"|"Spring"|"Torrance"|"NM"|"34.7671318"|"-106.3919805"|"7910"|"Bosque Peak"|""|"01-DEC-1991"
"Upper Fourth of July Spring"|"913109"|"Spring"|"Torrance"|"NM"|"34.7954924"|"-106.3901509"|"7815"|"Bosque Peak"|""|"01-DEC-1991"
"Lost Spring"|"913250"|"Spring"|"Catron"|"NM"|"33.9072743"|"-108.9828513"|"8409"|"Underwood Lake"|""|"01-JUL-1992"
"Hidden Spring"|"913288"|"Spring"|"Otero"|"NM"|"32.7867621"|"-105.6436151"|"7995"|"Bluff Springs"|""|"01-JUL-1992"
"Prestridge Spring"|"913289"|"Spring"|"Otero"|"NM"|"32.8106415"|"-105.6437517"|"8008"|"Bluff Springs"|""|"01-JUL-1992"
"Grindstone Spring"|"913489"|"Spring"|"San Miguel"|"NM"|"35.6883698"|"-105.4800143"|"8441"|"El Porvenir"|""|"01-SEP-1992"
"Corrales Spring"|"913494"|"Spring"|"San Miguel"|"NM"|"35.5717050"|"-105.5364034"|"8156"|"Lower Colonias"|""|"01-SEP-1992"
"Apache Spring"|"913502"|"Spring"|"San Miguel"|"NM"|"35.5522610"|"-105.5397367"|"7979"|"Lower Colonias"|""|"01-SEP-1992"
"La Cueva Number Two Spring"|"913503"|"Spring"|"San Miguel"|"NM"|"35.5603165"|"-105.5327922"|"8077"|"Lower Colonias"|""|"01-SEP-1992"
"La Cueve Number One Spring"|"913504"|"Spring"|"San Miguel"|"NM"|"35.5619832"|"-105.5236255"|"8113"|"Lower Colonias"|""|"01-SEP-1992"
"Turkey Spring"|"913546"|"Spring"|"Catron"|"NM"|"34.2074598"|"-107.9585626"|"8018"|"Crosby Springs"|""|"01-SEP-1992"
"Maestas Spring"|"913566"|"Spring"|"Taos"|"NM"|"36.2472494"|"-105.5511234"|"8356"|"Tres Ritos"|""|"01-SEP-1992"
"Ranch Supply Spring"|"913644"|"Spring"|"Socorro"|"NM"|"33.9051759"|"-107.5939336"|"7953"|"Monica Saddle"|""|"01-SEP-1992"
"Switch Spring"|"913649"|"Spring"|"Socorro"|"NM"|"33.9096573"|"-107.5091858"|"8232"|"Monica Saddle"|""|"01-SEP-1992"
"Bell Spring"|"913667"|"Spring"|"Socorro"|"NM"|"33.8005856"|"-107.4449056"|"8382"|"Grassy Lookout"|""|"01-SEP-1992"
"Hudson Spring"|"913668"|"Spring"|"Socorro"|"NM"|"33.7877731"|"-107.4874240"|"8205"|"Grassy Lookout"|""|"01-SEP-1992"
"Dry Spring"|"913672"|"Spring"|"Socorro"|"NM"|"33.8321469"|"-107.4378664"|"8074"|"Grassy Lookout"|""|"01-SEP-1992"
"Bear Canyon Spring"|"913733"|"Spring"|"Socorro"|"NM"|"33.9851197"|"-107.2158582"|"7982"|"South Baldy"|""|"01-SEP-1992"
"Bonito Spring"|"913783"|"Spring"|"Rio Arriba"|"NM"|"36.1094562"|"-106.7200611"|"8271"|"Jarosa"|""|"01-SEP-1992"
"Rincon Spring"|"913784"|"Spring"|"Rio Arriba"|"NM"|"36.1228748"|"-106.7359647"|"8363"|"Jarosa"|""|"01-SEP-1992"
"Escondido Spring"|"913803"|"Spring"|"Rio Arriba"|"NM"|"36.2491825"|"-106.6608706"|"8353"|"Arroyo Del Agua"|""|"01-SEP-1992"
"Nester Spring"|"913811"|"Spring"|"Rio Arriba"|"NM"|"36.0515216"|"-106.6361858"|"8474"|"Jarosa"|""|"01-SEP-1992"
"Campground Spring"|"913825"|"Spring"|"Rio Arriba"|"NM"|"36.1002805"|"-106.7193501"|"8094"|"Jarosa"|""|"01-SEP-1992"
"Ojitos Spring"|"913827"|"Spring"|"Rio Arriba"|"NM"|"36.1313300"|"-106.6531981"|"8025"|"Arroyo Del Agua"|""|"01-SEP-1992"
"Sarca Spring"|"913829"|"Spring"|"Rio Arriba"|"NM"|"36.1701764"|"-106.7457125"|"7926"|"Arroyo Del Agua"|""|"01-SEP-1992"
"Lino Spring"|"913830"|"Spring"|"Rio Arriba"|"NM"|"36.1741633"|"-106.7467793"|"7910"|"Arroyo Del Agua"|""|"01-SEP-1992"
"Gurule Spring"|"913839"|"Spring"|"Rio Arriba"|"NM"|"36.2491816"|"-106.7450384"|"8481"|"Arroyo Del Agua"|""|"01-SEP-1992"
"Casey Spring"|"913840"|"Spring"|"Rio Arriba"|"NM"|"36.2473205"|"-106.7134067"|"8379"|"Arroyo Del Agua"|""|"01-SEP-1992"
"Indio Spring"|"913866"|"Spring"|"Rio Arriba"|"NM"|"36.4702816"|"-106.7854506"|"7900"|"Llaves"|""|"01-SEP-1992"
"Jacal De Palo Spring"|"913979"|"Spring"|"Rio Arriba"|"NM"|"36.4273820"|"-106.1328927"|"8048"|"Valle Grande Peak"|""|"01-SEP-1992"
"La Cueva Springs"|"913985"|"Spring"|"Rio Arriba"|"NM"|"36.4229339"|"-106.2426231"|"8182"|"Valle Grande Peak"|""|"01-SEP-1992"
"Vacus Spring"|"914001"|"Spring"|"Sandoval"|"NM"|"35.9769638"|"-106.7955935"|"8133"|"Rancho del Chaparral"|""|"01-SEP-1992"
"Barley Spring"|"914003"|"Spring"|"Sandoval"|"NM"|"35.9541867"|"-106.7803156"|"8077"|"Rancho del Chaparral"|""|"01-SEP-1992"
"Redtop Spring"|"914005"|"Spring"|"Sandoval"|"NM"|"35.9261316"|"-106.8028157"|"8081"|"Rancho del Chaparral"|""|"01-SEP-1992"
"Flanigan Spring"|"914054"|"Spring"|"Catron"|"NM"|"33.8956076"|"-109.0314636"|"8337"|"Escudilla Mountain"|""|"01-SEP-1992"
"Gap Pough Spring"|"914055"|"Spring"|"Catron"|"NM"|"33.9911621"|"-109.0425770"|"8448"|"Escudilla Mountain"|""|"01-SEP-1992"
"Camp Two Spring"|"914160"|"Spring"|"Cibola"|"NM"|"35.2254348"|"-108.3526682"|"8186"|"Kettner Canyon"|""|"01-OCT-1992"
"Box Spring"|"914175"|"Spring"|"Torrance"|"NM"|"34.6101826"|"-106.4108171"|"7920"|"Manzano Peak"|""|"01-OCT-1992"
"Upper Jaramillo Spring"|"914193"|"Spring"|"Torrance"|"NM"|"34.6839478"|"-106.4266867"|"7854"|"Capilla Peak"|""|"01-OCT-1992"
"Log Spring"|"914195"|"Spring"|"Torrance"|"NM"|"34.6603373"|"-106.4358531"|"8107"|"Capilla Peak"|""|"01-OCT-1992"
"La Vera Spring"|"914209"|"Spring"|"McKinley"|"NM"|"35.4368994"|"-107.4674312"|"7972"|"El Dado Mesa"|""|"01-OCT-1992"
"Torro Spring"|"914228"|"Spring"|"Bernalillo"|"NM"|"35.1567113"|"-106.3933573"|"7805"|"Sandia Crest"|""|"01-OCT-1992"
"Water Canyon Spring"|"914245"|"Spring"|"Cibola"|"NM"|"35.1236457"|"-108.2420120"|"8248"|"Valle Largo"|""|"01-OCT-1992"
"Serna Spring"|"914250"|"Spring"|"Cibola"|"NM"|"35.1617519"|"-108.2349735"|"8058"|"Post Office Flat"|""|"01-OCT-1992"
"Rock Spring"|"914251"|"Spring"|"Cibola"|"NM"|"35.1464063"|"-108.2298230"|"8146"|"Post Office Flat"|""|"01-OCT-1992"
"Electric Spring"|"914263"|"Spring"|"Sandoval"|"NM"|"35.9072439"|"-106.6172575"|"8199"|"Valle San Antonio"|""|"01-FEB-1993"
"Footbath Spring"|"914280"|"Spring"|"Sandoval"|"NM"|"35.9080071"|"-106.6157510"|"8199"|"Valle San Antonio"|""|"01-FEB-1993"
"Missionary Springs"|"914283"|"Spring"|"San Juan"|"NM"|"36.1076469"|"-108.8446494"|"7946"|"Narbona Pass"|""|"01-FEB-1993"
"Magdalena Municipal Water Shed"|"914284"|"Spring"|"Socorro"|"NM"|"34.0375644"|"-107.2033688"|"8077"|"Magdalena"|""|"01-FEB-1993"
"Pajarito Spring"|"914290"|"Spring"|"Los Alamos"|"NM"|"35.8403023"|"-106.3808629"|"8176"|"Bland"|""|"01-FEB-1993"
"Lightning Spring"|"914297"|"Spring"|"Otero"|"NM"|"0.0000000"|"0.0000000"|"8179"|"Unknown"|""|"01-FEB-1993"
"Lemonade Spring"|"914298"|"Spring"|"Sandoval"|"NM"|"35.9072439"|"-106.6161463"|"8205"|"Valle San Antonio"|""|"01-FEB-1993"
"Laxitive Spring"|"914308"|"Spring"|"Sandoval"|"NM"|"35.9075217"|"-106.6178130"|"8172"|"Valle San Antonio"|""|"01-FEB-1993"
"Rock Springs"|"914368"|"Spring"|"Socorro"|"NM"|"34.0206199"|"-107.2239245"|"8153"|"Magdalena"|""|"01-FEB-1993"
"Refrigeration Springs"|"914385"|"Spring"|"San Miguel"|"NM"|"35.8186447"|"-105.4764036"|"8478"|"Rociada"|""|"01-FEB-1993"
"Seven Springs"|"914389"|"Spring"|"Sandoval"|"NM"|"35.9280765"|"-106.7028145"|"7949"|"Seven Springs"|""|"01-FEB-1993"
"Wooten Spring"|"914392"|"Spring"|"Otero"|"NM"|"0.0000000"|"0.0000000"|"8179"|"Unknown"|""|"01-FEB-1993"
"Sawyer Spring"|"914393"|"Spring"|"Los Alamos"|"NM"|"35.8239137"|"-106.3889185"|"8182"|"Bland"|""|"01-FEB-1993"
"House Spring"|"914423"|"Spring"|"Sandoval"|"NM"|"35.2289315"|"-106.4147462"|"7926"|"Sandia Crest"|""|"01-FEB-1993"
"Herd Springs"|"914425"|"Spring"|"Otero"|"NM"|"0.0000000"|"0.0000000"|"8179"|"Unknown"|""|"01-FEB-1993"
"Head Spring"|"914427"|"Spring"|"Sandoval"|"NM"|"35.2264315"|"-106.4147462"|"8195"|"Sandia Crest"|""|"01-FEB-1993"
"La Jara Ranch Spring"|"914439"|"Spring"|"Sandoval"|"NM"|"36.1480739"|"-106.9200404"|"7858"|"Regina"|""|"01-FEB-1993"
"Miserable Springs"|"915948"|"Spring"|"Otero"|"NM"|"33.2976373"|"-105.7782771"|"8481"|"Sierra Blanca Peak"|""|"31-AUG-1992"
"Canovas Spring"|"915959"|"Spring"|"Catron"|"NM"|"34.0064963"|"-109.0029498"|"8287"|"Loco Knoll"|""|"01-DEC-1991"
"Ben Springs"|"915998"|"Spring"|"Sandoval"|"NM"|"35.9901697"|"-106.7212498"|"8310"|"Seven Springs"|""|"01-JUN-1993"
"Moon Spring"|"916043"|"Spring"|"Sandoval"|"NM"|"35.9580976"|"-106.7482400"|"8481"|"Seven Springs"|""|"01-JUN-1993"
"Pine Spring 14N-25"|"917326"|"Spring"|"McKinley"|"NM"|"35.9132422"|"-108.8172708"|"8195"|"Chuska Peak"|""|"01-JUN-1993"
"Raton Springs"|"917583"|"Spring"|"McKinley"|"NM"|"0.0000000"|"0.0000000"|"7835"|"Unknown"|""|"01-JUN-1993"
"Wampia Spring"|"917585"|"Spring"|"McKinley"|"NM"|"0.0000000"|"0.0000000"|"7835"|"Unknown"|""|"01-JUN-1993"
"American Spring"|"918023"|"Spring"|"Los Alamos"|"NM"|"35.8369689"|"-106.3828074"|"8284"|"Bland"|""|"13-NOV-1980"
"Ojo de los Alamos"|"920471"|"Spring"|"Otero"|"NM"|"0.0000000"|"0.0000000"|"8179"|"Unknown"|""|"01-AUG-1993"
"La Gotera Spring"|"920818"|"Spring"|"Cibola"|"NM"|"0.0000000"|"0.0000000"|"8067"|"Unknown"|""|"01-SEP-1993"
"Poison Spring"|"920835"|"Spring"|"Cibola"|"NM"|"0.0000000"|"0.0000000"|"8067"|"Unknown"|""|"01-SEP-1993"
"12R-66 Spring"|"920897"|"Spring"|"San Juan"|"NM"|"36.4566667"|"-109.0180556"|"8110"|"Roof Butte"|""|"01-SEP-1993"
"Ojo del Navajo"|"928845"|"Spring"|"Rio Arriba"|"NM"|"0.0000000"|"0.0000000"|"8067"|"Unknown"|""|"01-DEC-1992"
"12M-1 Spring"|"930486"|"Spring"|"San Juan"|"NM"|"36.0961201"|"-108.8500901"|"8209"|"Narbona Pass"|""|"01-MAY-1994"
"14N-2 Spring"|"930487"|"Spring"|"San Juan"|"NM"|"36.0461215"|"-108.8109219"|"8222"|"Narbona Pass"|""|"01-MAY-1994"
"14GS-68-1 Spring"|"930488"|"Spring"|"San Juan"|"NM"|"36.0105669"|"-108.7875874"|"7910"|"Narbona Pass"|""|"01-MAY-1994"
"12R-162 Spring"|"930492"|"Spring"|"San Juan"|"NM"|"36.0956640"|"-108.8507981"|"8245"|"Narbona Pass"|""|"01-MAY-1994"
"12R-161 Owl Spring"|"930493"|"Spring"|"San Juan"|"NM"|"36.0971978"|"-108.8466697"|"8150"|"Narbona Pass"|""|"01-MAY-1994"
"12R-160 Spring"|"930494"|"Spring"|"San Juan"|"NM"|"36.1148867"|"-108.8475630"|"7940"|"Narbona Pass"|""|"01-MAY-1994"
"Ojo Negro Spring"|"933191"|"Spring"|"McKinley"|"NM"|"0.0000000"|"0.0000000"|"7835"|"Unknown"|""|"01-JUN-1994"
"Salt Springs"|"933235"|"Spring"|"Cibola"|"NM"|"0.0000000"|"0.0000000"|"8067"|"Unknown"|""|"01-JUN-1994"
"Willie Steel Spring"|"936542"|"Spring"|"Catron"|"NM"|"34.0597740"|"-108.7420130"|"7979"|"Gallo Mountains West"|""|"01-DEC-1991"
"Alice Spring"|"936556"|"Spring"|"Lincoln"|"NM"|"33.5825839"|"-105.3049855"|"8061"|"Capitan Peak"|""|"01-DEC-1991"
"Yates Spring"|"936728"|"Spring"|"Grant"|"NM"|"33.0003497"|"-107.8883712"|"7835"|"Hay Mesa"|""|"01-DEC-1991"
"Monument Spring"|"936730"|"Spring"|"Grant"|"NM"|"33.1070160"|"-107.9122615"|"8232"|"Hay Mesa"|""|"01-DEC-1991"
"Leon Spring"|"936786"|"Spring"|"Sandoval"|"NM"|"36.2011288"|"-106.8833740"|"7982"|"Regina"|""|"01-DEC-1991"
"Hy Clark Spring"|"937045"|"Spring"|"Catron"|"NM"|"33.7934889"|"-109.0400241"|"7907"|"Luna Lake"|"01-JAN-1991"|"01-JAN-1992"
"Aqua Fria Spring"|"937079"|"Spring"|"Socorro"|"NM"|"34.0270088"|"-107.2119800"|"8320"|"Magdalena"|""|"01-SEP-1992"
"Alamosa Spring"|"937129"|"Spring"|"Cibola"|"NM"|"35.1175346"|"-108.2303466"|"8261"|"Valle Largo"|""|"01-OCT-1992"
"Post Office Flat Spring"|"937130"|"Spring"|"Cibola"|"NM"|"35.1686637"|"-108.1454456"|"8474"|"Post Office Flat"|""|"01-OCT-1992"
"Little Trough Spring"|"942040"|"Spring"|"Cibola"|"NM"|"35.1103134"|"-108.2145080"|"8327"|"Valle Largo"|""|"01-OCT-1992"
"Mule Spring"|"942042"|"Spring"|"Cibola"|"NM"|"35.0753173"|"-108.1989517"|"7976"|"Valle Largo"|""|"01-OCT-1992"
"No Name Spring"|"1766247"|"Spring"|"Torrance"|"NM"|"34.5949820"|"-106.4114105"|"7844"|"Manzano Peak"|""|"03-DEC-1997"
"Colorado Spring"|"1766250"|"Spring"|"Torrance"|"NM"|"34.6236509"|"-106.4219637"|"8172"|"Manzano Peak"|""|"03-DEC-1997"
"Red Spring"|"1766251"|"Spring"|"Torrance"|"NM"|"34.6217833"|"-106.4142967"|"7943"|"Manzano Peak"|""|"03-DEC-1997"
"Sherman Spring"|"1766252"|"Spring"|"Torrance"|"NM"|"34.6497312"|"-106.4162661"|"8064"|"Capilla Peak"|""|"03-DEC-1997"
"Turrieta Spring"|"1766255"|"Spring"|"Torrance"|"NM"|"34.6763261"|"-106.4120475"|"8002"|"Capilla Peak"|""|"03-DEC-1997"
"New Canyon Number One Spring"|"1766256"|"Spring"|"Torrance"|"NM"|"34.6729921"|"-106.4172952"|"7969"|"Capilla Peak"|""|"03-DEC-1997"
"Tilio Spring"|"1766260"|"Spring"|"Torrance"|"NM"|"34.8006111"|"-106.4069658"|"8051"|"Bosque Peak"|""|"03-DEC-1997"
"Bruja Spring"|"1847422"|"Spring"|"Catron"|"NM"|"33.6996731"|"-108.0618362"|"7887"|"Pelona Mountain"|""|"13-JUL-1999"
"Davis Spring"|"1848296"|"Spring"|"Catron"|"NM"|"33.7006119"|"-108.4681143"|"8205"|"Collins Park"|""|"23-AUG-1999"
"Willow Spring"|"1848330"|"Spring"|"Catron"|"NM"|"33.7898590"|"-108.4825188"|"7903"|"John Kerr Peak"|""|"23-AUG-1999"
"Bear Well Spring"|"1854039"|"Spring"|"Catron"|"NM"|"34.0610718"|"-108.2558384"|"8061"|"Mangas Mountain"|""|"15-MAR-2000"
"Bell Spring"|"1854043"|"Spring"|"Catron"|"NM"|"34.0608866"|"-108.3156165"|"8487"|"Mangas Mountain"|""|"15-MAR-2000"
"Padilla Spring"|"1854044"|"Spring"|"Catron"|"NM"|"34.0736645"|"-108.3142278"|"8225"|"Mangas Mountain"|""|"15-MAR-2000"
"Familia Spring"|"1854054"|"Spring"|"Catron"|"NM"|"34.0139557"|"-108.3670530"|"8241"|"Mangas Mountain"|""|"15-MAR-2000"
"Valle Tio Vinces Spring"|"1854057"|"Spring"|"Catron"|"NM"|"34.0353799"|"-108.3483289"|"8150"|"Mangas Mountain"|""|"15-MAR-2000"
"Oak Spring"|"1854064"|"Spring"|"Catron"|"NM"|"34.0128315"|"-108.2822823"|"8415"|"Mangas Mountain"|""|"15-MAR-2000"
"T-Trough Spring"|"1923059"|"Spring"|"Catron"|"NM"|"34.1670000"|"-108.1589494"|"8202"|"Alegres Mountain"|""|"31-AUG-1992"
"Alice Spring"|"1923064"|"Spring"|"Catron"|"NM"|"34.1317220"|"-108.1803381"|"7953"|"Alegres Mountain"|""|"31-AUG-1992"
"Indian Spring"|"1923065"|"Spring"|"Catron"|"NM"|"34.1394998"|"-108.1678380"|"8031"|"Alegres Mountain"|""|"31-AUG-1992"
"Tin Cup Spring"|"1923246"|"Spring"|"Catron"|"NM"|"34.0119956"|"-108.9714640"|"8487"|"Jones Canyon"|""|"01-JUN-2001"
"Hay Vega Spring"|"1923248"|"Spring"|"Catron"|"NM"|"34.0189400"|"-108.9672974"|"8369"|"Jones Canyon"|""|"01-JUN-2001"
"Jones Spring"|"1923249"|"Spring"|"Catron"|"NM"|"34.0131070"|"-108.9386853"|"8366"|"Jones Canyon"|""|"01-JUN-2001"
"Mangitas Spring"|"1923257"|"Spring"|"Catron"|"NM"|"34.0586620"|"-108.8925731"|"7900"|"Jones Canyon"|""|"01-JUN-2001"
"Leslie Spring"|"1923263"|"Spring"|"Catron"|"NM"|"34.1039398"|"-108.4758958"|"7880"|"Slaughter Mesa"|""|"01-JUN-2001"
"Salvador Spring"|"1923277"|"Spring"|"Catron"|"NM"|"34.0669962"|"-108.4158951"|"8448"|"Slaughter Mesa"|""|"01-JUN-2001"
"Verde Spring"|"1923282"|"Spring"|"Catron"|"NM"|"34.0572745"|"-108.3845058"|"8487"|"Slaughter Mesa"|""|"01-JUN-2001"
"Caballeriza Spring"|"1923286"|"Spring"|"Catron"|"NM"|"34.0217188"|"-108.3908944"|"8441"|"Slaughter Mesa"|""|"01-JUN-2001"
"Sweazea Spring"|"1923304"|"Spring"|"Catron"|"NM"|"34.1720001"|"-108.1453381"|"7815"|"Alegres Mountain"|""|"01-JUN-2001"
"Hubble Spring"|"1923309"|"Spring"|"Catron"|"NM"|"34.1853329"|"-108.2264510"|"7976"|"Alegres Mountain"|""|"01-JUN-2001"
"Cottonwood Spring"|"1923310"|"Spring"|"Catron"|"NM"|"34.1675550"|"-108.2292285"|"8045"|"Alegres Mountain"|""|"01-JUN-2001"
"Bear Spring"|"1923311"|"Spring"|"Catron"|"NM"|"34.1400550"|"-108.2142278"|"8127"|"Alegres Mountain"|""|"01-JUN-2001"
"Pipe Spring"|"1923312"|"Spring"|"Catron"|"NM"|"34.1256103"|"-108.2406170"|"7861"|"Alegres Mountain"|""|"01-JUN-2001"
"El Toro Spring"|"1923314"|"Spring"|"Catron"|"NM"|"34.1783886"|"-108.1933947"|"8314"|"Alegres Mountain"|""|"01-JUN-2001"
"Quaking Aspen Spring"|"1923315"|"Spring"|"Catron"|"NM"|"34.1728332"|"-108.1767276"|"8373"|"Alegres Mountain"|""|"01-JUN-2001"
"Dees Spring"|"1923316"|"Spring"|"Catron"|"NM"|"34.1769996"|"-108.2022838"|"8317"|"Alegres Mountain"|""|"01-JUN-2001"
"T-Trough Spring"|"1923317"|"Spring"|"Catron"|"NM"|"34.1670000"|"-108.1506159"|"7903"|"Alegres Mountain"|""|"01-JUN-2001"
"Hardcastle Spring"|"1923323"|"Spring"|"Catron"|"NM"|"34.0244967"|"-108.7809027"|"7825"|"Black Peak"|""|"01-JUN-2001"
"White Bluff Spring"|"1923330"|"Spring"|"Catron"|"NM"|"34.0433849"|"-108.8259043"|"8297"|"Black Peak"|""|"01-JUN-2001"
"Dripping Spring"|"1923331"|"Spring"|"Catron"|"NM"|"34.0433850"|"-108.8142372"|"8245"|"Black Peak"|""|"01-JUN-2001"
"Troughs Spring"|"1923333"|"Spring"|"Catron"|"NM"|"34.0392186"|"-108.8000700"|"7920"|"Black Peak"|""|"01-JUN-2001"
"Baca Spring"|"1923334"|"Spring"|"Catron"|"NM"|"34.0347743"|"-108.7770138"|"7877"|"Black Peak"|""|"01-JUN-2001"
"Malpais Spring"|"1923335"|"Spring"|"Catron"|"NM"|"34.0069966"|"-108.8309041"|"8100"|"Black Peak"|""|"01-JUN-2001"
"Turkey Spring"|"1923364"|"Spring"|"Catron"|"NM"|"34.2089400"|"-108.4739522"|"8081"|"Escondido Mountain"|""|"01-JUN-2001"
"Baca Spring"|"1923367"|"Spring"|"Catron"|"NM"|"34.2064406"|"-108.4395077"|"7802"|"Escondido Mountain"|""|"01-JUN-2001"
"Calley Spring"|"1923370"|"Spring"|"Catron"|"NM"|"34.1603287"|"-108.4842296"|"7930"|"Escondido Mountain"|""|"01-JUN-2001"
"El Caso Spring"|"1923373"|"Spring"|"Catron"|"NM"|"34.1386626"|"-108.4453403"|"7858"|"Escondido Mountain"|""|"01-JUN-2001"
"Willow Spring"|"1923380"|"Spring"|"Catron"|"NM"|"34.0922731"|"-108.6111765"|"7943"|"Gallo Mountains East"|""|"01-JUN-2001"
"Pueblo Spring"|"1923384"|"Spring"|"Catron"|"NM"|"34.0431067"|"-108.5970090"|"7848"|"Gallo Mountains East"|""|"01-JUN-2001"
"Route Spring"|"1923385"|"Spring"|"Catron"|"NM"|"34.0411622"|"-108.5967312"|"7808"|"Gallo Mountains East"|""|"01-JUN-2001"
"Costilla Spring"|"1923386"|"Spring"|"Catron"|"NM"|"34.0428290"|"-108.6092315"|"7907"|"Gallo Mountains East"|""|"01-JUN-2001"
"Gallita Spring"|"1923391"|"Spring"|"Catron"|"NM"|"34.0328288"|"-108.5714527"|"7838"|"Gallo Mountains East"|""|"01-JUN-2001"
"Trough Spring"|"1923401"|"Spring"|"Catron"|"NM"|"34.0783841"|"-108.5797867"|"7946"|"Gallo Mountains East"|""|"01-JUN-2001"
"Porcupine Spring"|"1923403"|"Spring"|"Catron"|"NM"|"34.0814396"|"-108.5447858"|"7959"|"Gallo Mountains East"|""|"01-JUN-2001"
"Armijo Spring"|"1923404"|"Spring"|"Catron"|"NM"|"34.0928285"|"-108.5647864"|"7835"|"Gallo Mountains East"|""|"01-JUN-2001"
"Bull Camp Spring"|"1923418"|"Spring"|"Catron"|"NM"|"34.0425506"|"-108.5220071"|"7917"|"Gallo Mountains East"|""|"01-JUN-2001"
"Oak Spring"|"1923423"|"Spring"|"Catron"|"NM"|"34.0322742"|"-108.7045117"|"7864"|"Gallo Mountains West"|""|"01-JUN-2001"
"Valorie Spring"|"1923427"|"Spring"|"Catron"|"NM"|"34.0381074"|"-108.6886781"|"7936"|"Gallo Mountains West"|""|"01-JUN-2001"
"Lawson Spring"|"1923429"|"Spring"|"Catron"|"NM"|"34.0431074"|"-108.6967338"|"8491"|"Gallo Mountains West"|""|"01-JUN-2001"
"Black Spring"|"1923437"|"Spring"|"Catron"|"NM"|"34.0700517"|"-108.7347907"|"7894"|"Gallo Mountains West"|""|"01-JUN-2001"
